
$GPAPB,,,,,,,,,,,,,,*44

$GPGLL,5907.1920,N,01222.9510,E,000006,V*34

$GPRMB,,,,,,,,,,,,,*66

$GPRMC,000006,V,5907.1920,N,01222.9510,E,0.0,0.0,010200,1.1,E*6B

$GPGGA,000006,5907.1920,N,01222.9510,E,0,0,0.00,82,M,,,,*3D

$GPGSA,A,1,,,,,,,,,,,,,,0.00,0.00,0.00*2C

$GPGSV,1,1,0*49

$SDVLW,0.0,N,0.0,N*5A

$SDVHW,,T,,M,,N,,K*42

$SDMTW,,,C*36

$SDDPT,,*57

$SDDBT,,,,,,*45

$GPAPB,,,,,,,,,,,,,,*44

$GPGLL,5907.1920,N,01222.9510,E,000008,V*3A

$GPRMB,,,,,,,,,,,,,*66

$GPRMC,000008,V,5907.1920,N,01222.9510,E,0.0,0.0,010200,1.1,E*65

$GPGGA,000008,5907.1920,N,01222.9510,E,0,0,99.00,82,M,,,,*03

$GPGSA,A,1,,,,,,,,,,,,,,99.00,99.00,0.00*2C

$GPGSV,1,1,1,123,22,194,*44

$SDVLW,0.0,N,0.0,N*5A

$SDVHW,,T,,M,0.0,N,0.0,K*42

$SDMTW,,,C*36

$SDDPT,,*57

$SDDBT,,,,,,*45

$GPAPB,,,,,,,,,,,,,,*44

$GPGLL,5907.1920,N,01222.9510,E,000010,V*33

$GPRMB,,,,,,,,,,,,,*66

$GPRMC,000010,V,5907.1920,N,01222.9510,E,0.0,0.0,010200,1.1,E*6C

$GPGGA,000010,5907.1920,N,01222.9510,E,0,0,99.00,82,M,,,,*0A

$GPGSA,A,1,,,,,,,,,,,,,,99.00,99.00,0.00*2C

$GPGSV,1,1,1,123,22,194,*44

$SDVLW,0.0,N,0.0,N*5A

$SDVHW,,T,,M,0.0,N,0.0,K*42

$SDMTW,,,C*36

$SDDPT,,*57

$SDDBT,,,,,,*45

$GPAPB,,,,,,,,,,,,,,*44

$GPGLL,5907.1920,N,01222.9510,E,000012,V*31

$GPRMB,,,,,,,,,,,,,*66

$GPRMC,000012,V,5907.1920,N,01222.9510,E,0.0,0.0,010200,1.1,E*6E

$GPGGA,000012,5907.1920,N,01222.9510,E,0,0,99.00,82,M,,,,*08

$GPGSA,A,1,,,,,,,,,,,,,,99.00,99.00,0.00*2C

$GPGSV,1,1,1,123,22,194,*44

$SDVLW,0.0,N,0.0,N*5A

$SDVHW,,T,,M,0.0,N,0.0,K*42

$SDMTW,,,C*36

$SDDPT,,*57

$SDDBT,,,,,,*45

$GPAPB,,,,,,,,,,,,,,*44

$GPGLL,5907.1920,N,01222.9510,E,000014,V*37

$GPRMB,,,,,,,,,,,,,*66

$GPRMC,000014,V,5907.1920,N,01222.9510,E,0.0,0.0,010200,1.1,E*68

$GPGGA,000014,5907.1920,N,01222.9510,E,0,0,99.00,82,M,,,,*0E

$GPGSA,A,1,,,,,,,,,,,,,,99.00,99.00,0.00*2C

$GPGSV,1,1,1,123,22,194,*44

$SDVLW,0.0,N,0.0,N*5A

$SDVHW,,T,,M,0.0,N,0.0,K*42

$SDMTW,,,C*36

$SDDPT,,*57

$SDDBT,,,,,,*45

$GPAPB,,,,,,,,,,,,,,*44

$GPGLL,5907.1920,N,01222.9510,E,000016,V*35

$GPRMB,,,,,,,,,,,,,*66

$GPRMC,000016,V,5907.1920,N,01222.9510,E,0.0,0.0,010200,1.1,E*6A

$GPGGA,000016,5907.1920,N,01222.9510,E,0,0,99.00,82,M,,,,*0C

$GPGSA,A,1,,,,,,,,,,,,,,99.00,99.00,0.00*2C

$GPGSV,1,1,1,123,22,194,*44

$SDVLW,0.0,N,0.0,N*5A

$SDVHW,,T,,M,0.0,N,0.0,K*42

$SDMTW,,,C*36

$SDDPT,,*57

$SDDBT,,,,,,*45

$GPAPB,,,,,,,,,,,,,,*44

$GPGLL,5907.1920,N,01222.9510,E,000018,V*3B

$GPRMB,,,,,,,,,,,,,*66

$GPRMC,000018,V,5907.1920,N,01222.9510,E,0.0,0.0,010200,1.1,E*64

$GPGGA,000018,5907.1920,N,01222.9510,E,0,0,99.00,82,M,,,,*02

$GPGSA,A,1,,,,,,,,,,,,,,99.00,99.00,0.00*2C

$GPGSV,1,1,1,123,22,194,*44

$SDVLW,0.0,N,0.0,N*5A

$SDVHW,,T,,M,0.0,N,0.0,K*42

$SDMTW,,,C*36

$SDDPT,,*57

$SDDBT,,,,,,*45

$GPAPB,,,,,,,,,,,,,,*44

$GPGLL,5907.1920,N,01222.9510,E,000020,V*30

$GPRMB,,,,,,,,,,,,,*66

$GPRMC,000020,V,5907.1920,N,01222.9510,E,0.0,0.0,010200,1.1,E*6F

$GPGGA,000020,5907.1920,N,01222.9510,E,0,0,99.00,82,M,,,,*09

$GPGSA,A,1,,,,,,,,,,,,,,99.00,99.00,0.00*2C

$GPGSV,1,1,1,123,22,194,*44

$SDVLW,0.0,N,0.0,N*5A

$SDVHW,,T,,M,0.0,N,0.0,K*42

$SDMTW,,,C*36

$SDDPT,,*57

$SDDBT,,,,,,*45

$GPAPB,,,,,,,,,,,,,,*44

$GPGLL,5907.1920,N,01222.9510,E,000022,V*32

$GPRMB,,,,,,,,,,,,,*66

$GPRMC,000022,V,5907.1920,N,01222.9510,E,0.0,0.0,010200,1.1,E*6D

$GPGGA,000022,5907.1920,N,01222.9510,E,0,0,99.00,82,M,,,,*0B

$GPGSA,A,1,,,,,,,,,,,,,,99.00,99.00,0.00*2C

$GPGSV,1,1,1,123,22,194,*44

$SDVLW,0.0,N,0.0,N*5A

$SDVHW,,T,,M,0.0,N,0.0,K*42

$SDMTW,,,C*36

$SDDPT,,*57

$SDDBT,,,,,,*45

$GPAPB,,,,,,,,,,,,,,*44

$GPGLL,5907.1920,N,01222.9510,E,000024,V*34

$GPRMB,,,,,,,,,,,,,*66

$GPRMC,000024,V,5907.1920,N,01222.9510,E,0.0,0.0,010200,1.1,E*6B

$GPGGA,000024,5907.1920,N,01222.9510,E,0,0,99.00,82,M,,,,*0D

$GPGSA,A,1,,,,,,,,,,,,,,99.00,99.00,0.00*2C

$GPGSV,1,1,1,123,22,194,*44

$SDVLW,0.0,N,0.0,N*5A

$SDVHW,,T,,M,0.0,N,0.0,K*42

$SDMTW,,,C*36

$SDDPT,,*57

$SDDBT,,,,,,*45

$GPAPB,,,,,,,,,,,,,,*44

$GPGLL,5907.1920,N,01222.9510,E,000026,V*36

$GPGGA,000026,5907.1920,N,01222.9510,E,0,0,99.00,82,M,,,,*0F

$GPGSA,A,1,,,,,,,,,,,,,,99.00,99.00,0.00*2C

$SDVLW,0.0,N,0.0,N*5A

$SDVHW,,T,,M,0.0,N,0.0,K*42

$SDMTW,,,C*36

$SDDPT,,*57

$SDDBT,,,,,,*45

$GPAPB,,,,,,,,,,,,,,*44

$GPGLL,5907.1920,N,01222.9510,E,000028,V*38

$GPRMC,000028,V,5907.1920,N,01222.9510,E,0.0,0.0,010200,1.1,E*67

$GPGGA,000028,5907.1920,N,01222.9510,E,0,0,99.00,82,M,,,,*01

$GPGSA,A,1,,,,,,,,,,,,,,99.00,99.00,0.00*2C

$GPGSV,1,1,1,123,22,194,*44

$SDVLW,0.0,N,0.0,N*5A

$SDVHW,,T,,M,0.0,N,0.0,K*42

$SDVHW,,T,,M,0.0,N,0.0,K*42

$SDMTW,,,C*36

$SDDPT,,*57

$SDDBT,,,,,,*45

$GPAPB,,,,,,,,,,,,,,*44

$GPGLL,5907.1920,N,01222.9510,E,000032,V*33

$GPRMB,,,,,,,,,,,,,*66

$GPRMC,000032,V,5907.1920,N,01222.9510,E,0.0,0.0,010200,1.1,E*6C

$GPGGA,000032,5907.1920,N,01222.9510,E,0,0,99.00,82,M,,,,*0A

$GPGSA,A,1,,,,,,,,,,,,,,99.00,99.00,0.00*2C

$GPGSV,1,1,1,123,22,194,*44

$SDVLW,0.0,N,0.0,N*5A

$SDVHW,,T,,M,0.0,N,0.0,K*42

$SDMTW,,,C*36

$SDDPT,,*57

$SDDBT,,,,,,*45

$GPAPB,,,,,,,,,,,,,,*44

$GPGLL,5907.1920,N,01222.9510,E,000034,V*35

$GPRMB,,,,,,,,,,,,,*66

$GPRMC,000034,V,5907.1920,N,01222.9510,E,0.0,0.0,010200,1.1,E*6A

$GPGGA,000034,5907.1920,N,01222.9510,E,0,0,99.00,82,M,,,,*0C

$GPGSA,A,1,,,,,,,,,,,,,,99.00,99.00,0.00*2C

$GPGSV,1,1,1,123,22,194,*44

$SDVLW,0.0,N,0.0,N*5A

$SDVHW,,T,,M,0.0,N,0.0,K*42

$SDMTW,,,C*36

$SDDPT,,*57

$GPAPB,,,,,,,,,,,,,,*44

$GPGLL,5907.1920,N,01222.9510,E,000036,V*37

$GPRMB,,,,,,,,,,,,,*66

$GPRMC,000036,V,5907.1920,N,01222.9510,E,0.0,0.0,010200,1.1,E*68

$GPGGA,000036,5907.1920,N,01222.9510,E,0,0,99.00,82,M,,,,*0E

$GPGSA,A,1,,,,,,,,,,,,,,99.00,99.00,0.00*2C

$GPGSV,1,1,1,123,22,194,*44

$SDVLW,0.0,N,0.0,N*5A

$SDVHW,,T,,M,0.0,N,0.0,K*42

$SDMTW,,,C*36

$SDDPT,,*57

$SDDBT,,,,,,*45

$GPAPB,,,,,,,,,,,,,,*44

$GPGLL,5907.1920,N,01222.9510,E,000038,V*39

$GPRMB,,,,,,,,,,,,,*66

$GPRMC,000038,V,5907.1920,N,01222.9510,E,0.0,0.0,010200,1.1,E*66

$GPGGA,000038,5907.1920,N,01222.9510,E,0,0,99.00,82,M,,,,*00

$GPGSA,A,1,,,,,,,,,,,,,,99.00,99.00,0.00*2C

$GPGSV,1,1,1,123,22,194,*44

$SDVLW,0.0,N,0.0,N*5A

$SDVHW,,T,,M,0.0,N,0.0,K*42

$SDMTW,,,C*36

$SDDPT,,*57

$SDDBT,,,,,,*45

$GPAPB,,,,,,,,,,,,,,*44

$GPGLL,5907.1920,N,01222.9510,E,000040,V*36

$GPRMB,,,,,,,,,,,,,*66

$GPRMC,000040,V,5907.1920,N,01222.9510,E,0.0,0.0,010200,1.1,E*69

$GPGGA,000040,5907.1920,N,01222.9510,E,0,0,99.00,82,M,,,,*0F

$GPGSA,A,1,,,,,,,,,,,,,,99.00,99.00,0.00*2C

$GPGSV,1,1,1,123,22,194,*44

$SDVLW,0.0,N,0.0,N*5A

$SDVHW,,T,,M,0.0,N,0.0,K*42

$SDMTW,,,C*36

$SDDPT,,*57

$SDDBT,,,,,,*45

$GPAPB,,,,,,,,,,,,,,*44

$GPGLL,5907.1920,N,01222.9510,E,000042,V*34

$GPRMB,,,,,,,,,,,,,*66

$GPRMC,000042,V,5907.1920,N,01222.9510,E,0.0,0.0,010200,1.1,E*6B

$GPGGA,000042,5907.1920,N,01222.9510,E,0,0,99.00,82,M,,,,*0D

$GPGSA,A,1,,,,,,,,,,,,,,99.00,99.00,0.00*2C

$GPGSV,1,1,1,123,22,194,*44

$SDVLW,0.0,N,0.0,N*5A

$SDVHW,,T,,M,0.0,N,0.0,K*42

$SDMTW,,,C*36

$SDDPT,,*57

$SDDBT,,,,,,*45

$GPAPB,,,,,,,,,,,,,,*44

$GPGLL,5907.1920,N,01222.9510,E,000044,V*32

$GPRMB,,,,,,,,,,,,,*66

$GPRMC,000044,V,5907.1920,N,01222.9510,E,0.0,0.0,010200,1.1,E*6D

$GPGGA,000044,5907.1920,N,01222.9510,E,0,0,99.00,82,M,,,,*0B

$GPGSA,A,1,,,,,,,,,,,,,,99.00,99.00,0.00*2C

$GPGSV,1,1,1,123,22,194,*44

$SDVLW,0.0,N,0.0,N*5A

$SDVHW,,T,,M,0.0,N,0.0,K*42

$SDMTW,,,C*36

$SDDPT,,*57

$SDDBT,,,,,,*45

$GPAPB,,,,,,,,,,,,,,*44

$GPGLL,5907.1920,N,01222.9510,E,000046,V*30

$GPRMB,,,,,,,,,,,,,*66

$GPRMC,000046,V,5907.1920,N,01222.9510,E,0.0,0.0,010200,1.1,E*6F

$GPGGA,000046,5907.1920,N,01222.9510,E,0,0,99.00,82,M,,,,*09

$GPGSA,A,1,,,,,,,,,,,,,,99.00,99.00,0.00*2C

$GPGSV,1,1,1,123,22,194,*44

$SDVLW,0.0,N,0.0,N*5A

$SDVHW,,T,,M,0.0,N,0.0,K*42

$SDMTW,,,C*36

$SDDPT,,*57

$SDDBT,,,,,,*45

$GPAPB,,,,,,,,,,,,,,*44

$GPGLL,5907.1920,N,01222.9510,E,000048,V*3E

$GPRMB,,,,,,,,,,,,,*66

$GPRMC,000048,V,5907.1920,N,01222.9510,E,0.0,0.0,010200,1.1,E*61

$GPGGA,000048,5907.1920,N,01222.9510,E,0,0,99.00,82,M,,,,*07

$GPGSA,A,1,,,,,,,,,,,,,,99.00,99.00,0.00*2C

$GPGSV,1,1,1,123,22,194,*44

$SDVLW,0.0,N,0.0,N*5A

$SDVHW,,T,,M,0.0,N,0.0,K*42

$SDMTW,,,C*36

$SDDPT,,*57

$SDDBT,,,,,,*45

$GPAPB,,,,,,,,,,,,,,*44

$GPGLL,5907.1920,N,01222.9510,E,000050,V*37

$GPRMB,,,,,,,,,,,,,*66

$GPRMC,000050,V,5907.1920,N,01222.9510,E,0.0,0.0,010200,1.1,E*68

$GPGGA,000050,5907.1920,N,01222.9510,E,0,0,99.00,82,M,,,,*0E

$GPGSA,A,1,,,,,,,,,,,,,,99.00,99.00,0.00*2C

$GPGSV,1,1,1,123,22,194,*44

$SDVLW,0.0,N,0.0,N*5A

$SDVHW,,T,,M,0.0,N,0.0,K*42

$SDMTW,,,C*36

$SDDPT,,*57

$SDDBT,,,,,,*45

$GPAPB,,,,,,,,,,,,,,*44

$GPGLL,5907.1920,N,01222.9510,E,000052,V*35

$GPRMB,,,,,,,,,,,,,*66

$GPRMC,000052,V,5907.1920,N,01222.9510,E,0.0,0.0,010200,1.1,E*6A

$GPGGA,000052,5907.1920,N,01222.9510,E,0,0,99.00,82,M,,,,*0C

$GPGSA,A,1,,,,,,,,,,,,,,99.00,99.00,0.00*2C

$GPGSV,1,1,1,123,22,194,*44

$SDVLW,0.0,N,0.0,N*5A

$SDVHW,,T,,M,0.0,N,0.0,K*42

$SDMTW,,,C*36

$SDDPT,,*57

$SDDBT,,,,,,*45

$GPAPB,,,,,,,,,,,,,,*44

$GPGLL,5907.1920,N,01222.9510,E,000054,V*33

$GPRMB,,,,,,,,,,,,,*66

$GPRMC,000054,V,5907.1920,N,01222.9510,E,0.0,0.0,010200,1.1,E*6C

$GPGGA,000054,5907.1920,N,01222.9510,E,0,0,99.00,82,M,,,,*0A

$GPGSA,A,1,,,,,,,,,,,,,,99.00,99.00,0.00*2C

$GPGSV,1,1,1,123,22,194,*44

$SDVLW,0.0,N,0.0,N*5A

$SDVHW,,T,,M,0.0,N,0.0,K*42

$SDMTW,,,C*36

$SDDPT,,*57

$SDDBT,,,,,,*45

$GPAPB,,,,,,,,,,,,,,*44

$GPGLL,5907.1920,N,01222.9510,E,000056,V*31

$GPRMB,,,,,,,,,,,,,*66

$GPRMC,000056,V,5907.1920,N,01222.9510,E,0.0,0.0,010200,1.1,E*6E

$GPGGA,000056,5907.1920,N,01222.9510,E,0,0,99.00,82,M,,,,*08

$GPGSA,A,1,,,,,,,,,,,,,,99.00,99.00,0.00*2C

$GPGSV,1,1,1,123,22,194,*44

$SDVLW,0.0,N,0.0,N*5A

$SDVHW,,T,,M,0.0,N,0.0,K*42

$SDMTW,,,C*36

$SDDPT,,*57

$SDDBT,,,,,,*45

$GPAPB,,,,,,,,,,,,,,*44

$GPGLL,5907.1920,N,01222.9510,E,000058,V*3F

$GPRMB,,,,,,,,,,,,,*66

$GPRMC,000058,V,5907.1920,N,01222.9510,E,0.0,0.0,010200,1.1,E*60

$GPGGA,000058,5907.1920,N,01222.9510,E,0,0,99.00,82,M,,,,*06

$GPGSA,A,1,,,,,,,,,,,,,,99.00,99.00,0.00*2C

$GPGSV,1,1,1,123,22,194,*44

$SDVLW,0.0,N,0.0,N*5A

$SDVHW,,T,,M,0.0,N,0.0,K*42

$SDMTW,,,C*36

$SDDPT,,*57

$SDDBT,,,,,,*45

$GPAPB,,,,,,,,,,,,,,*44

$GPGLL,5907.1920,N,01222.9510,E,000100,V*33

$GPRMB,,,,,,,,,,,,,*66

$GPRMC,000100,V,5907.1920,N,01222.9510,E,0.0,0.0,010200,1.1,E*6C

$GPGGA,000100,5907.1920,N,01222.9510,E,0,0,99.00,82,M,,,,*0A

$GPGSA,A,1,,,,,,,,,,,,,,99.00,99.00,0.00*2C

$GPGSV,1,1,1,123,22,194,*44

$SDVLW,0.0,N,0.0,N*5A

$SDVHW,,T,,M,0.0,N,0.0,K*42

$SDMTW,,,C*36

$SDDPT,,*57

$SDDBT,,,,,,*45

$GPAPB,,,,,,,,,,,,,,*44

$GPGLL,5907.1920,N,01222.9510,E,000102,V*31

$GPRMB,,,,,,,,,,,,,*66

$GPRMC,000102,V,5907.1920,N,01222.9510,E,0.0,0.0,010200,1.1,E*6E

$GPGGA,000102,5907.1920,N,01222.9510,E,0,0,99.00,82,M,,,,*08

$GPGSA,A,1,,,,,,,,,,,,,,99.00,99.00,0.00*2C

$GPGSV,1,1,1,123,22,194,*44

$SDVLW,0.0,N,0.0,N*5A

$SDVHW,,T,,M,0.0,N,0.0,K*42

$SDMTW,,,C*36

$SDDPT,,*57

$SDDBT,,,,,,*45

$GPAPB,,,,,,,,,,,,,,*44

$GPGLL,5907.1920,N,01222.9510,E,000104,V*37

$GPRMB,,,,,,,,,,,,,*66

$GPRMC,000104,V,5907.1920,N,01222.9510,E,0.0,0.0,010200,1.1,E*68

$GPGGA,000104,5907.1920,N,01222.9510,E,0,0,99.00,82,M,,,,*0E

$GPGSA,A,1,,,,,,,,,,,,,,99.00,99.00,0.00*2C

$GPGSV,1,1,1,123,22,194,*44

$SDVLW,0.0,N,0.0,N*5A

$SDVHW,,T,,M,0.0,N,0.0,K*42

$SDMTW,,,C*36

$SDDPT,,*57

$SDDBT,,,,,,*45

$GPAPB,,,,,,,,,,,,,,*44

$GPGLL,5907.1920,N,01222.9510,E,000106,V*35

$GPRMB,,,,,,,,,,,,,*66

$GPRMC,000106,V,5907.1920,N,01222.9510,E,0.0,0.0,010200,1.1,E*6A

$GPGGA,000106,5907.1920,N,01222.9510,E,0,0,99.00,82,M,,,,*0C

$GPGSA,A,1,,,,,,,,,,,,,,99.00,99.00,0.00*2C

$GPGSV,1,1,1,123,22,194,*44

$SDVLW,0.0,N,0.0,N*5A

$SDVHW,,T,,M,0.0,N,0.0,K*42

$SDMTW,,,C*36

$SDDPT,,*57

$SDDBT,,,,,,*45

$GPAPB,,,,,,,,,,,,,,*44

$GPGLL,5907.1920,N,01222.9510,E,000108,V*3B

$GPRMB,,,,,,,,,,,,,*66

$GPRMC,000108,V,5907.1920,N,01222.9510,E,0.0,0.0,010200,1.1,E*64

$GPGGA,000108,5907.1920,N,01222.9510,E,0,0,99.00,82,M,,,,*02

$GPGSA,A,1,,,,,,,,,,,,,,99.00,99.00,0.00*2C

$GPGSV,1,1,1,123,22,194,*44

$SDVLW,0.0,N,0.0,N*5A

$SDVHW,,T,,M,0.0,N,0.0,K*42

$SDMTW,,,C*36

$SDDPT,,*57

$SDDBT,,,,,,*45

$GPAPB,,,,,,,,,,,,,,*44

$GPGLL,5907.1920,N,01222.9510,E,000110,V*32

$GPRMB,,,,,,,,,,,,,*66

$GPRMC,000110,V,5907.1920,N,01222.9510,E,0.0,0.0,010200,1.1,E*6D

$GPGGA,000110,5907.1920,N,01222.9510,E,0,0,99.00,82,M,,,,*0B

$GPGSA,A,1,,,,,,,,,,,,,,99.00,99.00,0.00*2C

$GPGSV,1,1,1,123,22,194,*44

$SDVLW,0.0,N,0.0,N*5A

$SDVHW,,T,,M,0.0,N,0.0,K*42

$SDMTW,,,C*36

$SDDPT,,*57

$SDDBT,,,,,,*45

$GPAPB,,,,,,,,,,,,,,*44

$GPGLL,5907.1920,N,01222.9510,E,000112,V*30

$GPRMB,,,,,,,,,,,,,*66

$GPRMC,000112,V,5907.1920,N,01222.9510,E,0.0,0.0,010200,1.1,E*6F

$GPGGA,000112,5907.1920,N,01222.9510,E,0,0,99.00,82,M,,,,*09

$GPGSA,A,1,,,,,,,,,,,,,,99.00,99.00,0.00*2C

$GPGSV,1,1,1,123,22,194,*44

$SDVLW,0.0,N,0.0,N*5A

$SDVHW,,T,,M,0.0,N,0.0,K*42

$SDMTW,,,C*36

$SDDPT,,*57

$SDDBT,,,,,,*45

$GPAPB,,,,,,,,,,,,,,*44

$GPGLL,5907.1920,N,01222.9510,E,000114,V*36

$GPRMB,,,,,,,,,,,,,*66

$GPRMC,000114,V,5907.1920,N,01222.9510,E,0.0,0.0,010200,1.1,E*69

$GPGGA,000114,5907.1920,N,01222.9510,E,0,0,99.00,82,M,,,,*0F

$GPGSA,A,1,,,,,,,,,,,,,,99.00,99.00,0.00*2C

$GPGSV,1,1,1,123,22,194,*44

$SDVLW,0.0,N,0.0,N*5A

$SDVHW,,T,,M,0.0,N,0.0,K*42

$SDMTW,,,C*36

$SDDPT,,*57

$SDDBT,,,,,,*45

$GPAPB,,,,,,,,,,,,,,*44

$GPGLL,5907.1920,N,01222.9510,E,000116,V*34

$GPRMB,,,,,,,,,,,,,*66

$GPRMC,000116,V,5907.1920,N,01222.9510,E,0.0,0.0,010200,1.1,E*6B

$GPGGA,000116,5907.1920,N,01222.9510,E,0,0,99.00,82,M,,,,*0D

$GPGSA,A,1,,,,,,,,,,,,,,99.00,99.00,0.00*2C

$GPGSV,1,1,1,123,22,194,*44

$SDVLW,0.0,N,0.0,N*5A

$SDVHW,,T,,M,0.0,N,0.0,K*42

$SDMTW,,,C*36

$SDDPT,,*57

$SDDBT,,,,,,*45

$GPAPB,,,,,,,,,,,,,,*44

$GPGLL,5907.1920,N,01222.9510,E,000118,V*3A

$GPRMB,,,,,,,,,,,,,*66

$GPRMC,000118,V,5907.1920,N,01222.9510,E,0.0,0.0,010200,1.1,E*65

$GPGGA,000118,5907.1920,N,01222.9510,E,0,0,99.00,82,M,,,,*03

$GPGSA,A,1,,,,,,,,,,,,,,99.00,99.00,0.00*2C

$GPGSV,1,1,1,123,22,194,*44

$SDVLW,0.0,N,0.0,N*5A

$SDVHW,,T,,M,0.0,N,0.0,K*42

$SDMTW,,,C*36

$SDDPT,,*57

$SDDBT,,,,,,*45

$GPAPB,,,,,,,,,,,,,,*44

$GPGLL,5907.1920,N,01222.9510,E,000120,V*31

$GPRMB,,,,,,,,,,,,,*66

$GPRMC,000120,V,5907.1920,N,01222.9510,E,0.0,0.0,010200,1.1,E*6E

$GPGGA,000120,5907.1920,N,01222.9510,E,0,0,99.00,82,M,,,,*08

$GPGSA,A,1,,,,,,,,,,,,,,99.00,99.00,0.00*2C

$GPGSV,1,1,1,123,22,194,*44

$SDVLW,0.0,N,0.0,N*5A

$SDVHW,,T,,M,0.0,N,0.0,K*42

$SDMTW,,,C*36

$SDDPT,,*57

$SDDBT,,,,,,*45

$GPAPB,,,,,,,,,,,,,,*44

$GPGLL,5907.1920,N,01222.9510,E,000122,V*33

$GPRMB,,,,,,,,,,,,,*66

$GPRMC,000122,V,5907.1920,N,01222.9510,E,0.0,0.0,010200,1.1,E*6C

$GPGGA,000122,5907.1920,N,01222.9510,E,0,0,99.00,82,M,,,,*0A

$GPGSA,A,1,,,,,,,,,,,,,,99.00,99.00,0.00*2C

$GPGSV,1,1,1,123,22,194,*44

$SDVLW,0.0,N,0.0,N*5A

$SDVHW,,T,,M,0.0,N,0.0,K*42

$SDMTW,,,C*36

$SDDPT,,*57

$SDDBT,,,,,,*45

$GPAPB,,,,,,,,,,,,,,*44

$GPGLL,5907.1920,N,01222.9510,E,000124,V*35

$GPRMB,,,,,,,,,,,,,*66

$GPRMC,000124,V,5907.1920,N,01222.9510,E,0.0,0.0,010200,1.1,E*6A

$GPGGA,000124,5907.1920,N,01222.9510,E,0,0,99.00,82,M,,,,*0C

$GPGSA,A,1,,,,,,,,,,,,,,99.00,99.00,0.00*2C

$GPGSV,1,1,1,123,22,194,*44

$SDVLW,0.0,N,0.0,N*5A

$SDVHW,,T,,M,0.0,N,0.0,K*42

$SDMTW,,,C*36

$SDDPT,,*57

$SDDBT,,,,,,*45

$GPAPB,,,,,,,,,,,,,,*44

$GPGLL,5907.1920,N,01222.9510,E,000126,V*37

$GPRMB,,,,,,,,,,,,,*66

$GPGGA,000126,5907.1920,N,01222.9510,E,0,0,99.00,82,M,,,,*0E

$GPGSA,A,1,,,,,,,,,,,,,,99.00,99.00,0.00*2C

$GPGSV,1,1,1,123,22,194,*44

$SDVLW,0.0,N,0.0,N*5A

$SDVHW,,T,,M,0.0,N,0.0,K*42

$SDMTW,,,C*36

$SDDPT,,*57

$SDDBT,,,,,,*45

$GPAPB,,,,,,,,,,,,,,*44

$GPGLL,5907.1920,N,01222.9510,E,000128,V*39

$GPRMB,,,,,,,,,,,,,*66

$GPRMC,000128,V,5907.1920,N,01222.9510,E,0.0,0.0,010200,1.1,E*66

$GPGGA,000128,5907.1920,N,01222.9510,E,0,0,99.00,82,M,,,,*00

$GPGSA,A,1,,,,,,,,,,,,,,99.00,99.00,0.00*2C

$GPGSV,1,1,1,123,22,194,*44

$SDVLW,0.0,N,0.0,N*5A

$SDVHW,,T,,M,0.0,N,0.0,K*42

$SDMTW,,,C*36

$GPAPB,,,,,,,,,,,,,,*44

$GPGSA,A,1,,,,,,,,,,,,,,99.00,99.00,0.00*2C

$SDVHW,,T,,M,0.0,N,0.0,K*42

$SDMTW,,,C*36

$GPAPB,,,,,,,,,,,,,,*44

$GPRMB,,,,,,,,,,,,,*66

$GPGGA,000132,5907.1920,N,01222.9510,E,0,0,99.00,82,M,,,,*0B

$GPGSV,1,1,1,123,22,194,*44

$SDVLW,0.0,N,0.0,N*5A

$GPAPB,,,,,,,,,,,,,,*44

$GPRMC,000134,V,5907.1920,N,01222.9510,E,0.0,0.0,010200,1.1,E*6B

$GPGGA,000134,5907.1920,N,01222.9510,E,0,0,99.00,82,M,,,,*0D

$GPGSA,A,1,,,,,,,,,,,,,,99.00,99.00,0.00*2C

$GPGSV,1,1,1,123,22,194,*44

$SDVLW,0.0,N,0.0,N*5A

$SDVHW,,T,,M,0.0,N,0.0,K*42

$SDMTW,,,C*36

$SDDPT,,*57

$SDDBT,,,,,,*45

$GPAPB,,,,,,,,,,,,,,*44

$GPGLL,5907.1920,N,01222.9510,E,000136,V*36

$GPRMB,,,,,,,,,,,,,*66

$GPRMC,000136,V,5907.1920,N,01222.9510,E,0.0,0.0,010200,1.1,E*69

$GPGGA,000136,5907.1920,N,01222.9510,E,0,0,99.00,82,M,,,,*0F

$GPGSA,A,1,,,,,,,,,,,,,,99.00,99.00,0.00*2C

$GPGSV,1,1,1,123,22,194,*44

$SDVLW,0.0,N,0.0,N*5A

$SDVHW,,T,,M,0.0,N,0.0,K*42

$SDMTW,,,C*36

$SDDPT,,*57

$SDDBT,,,,,,*45

$GPAPB,,,,,,,,,,,,,,*44

$GPGLL,5907.1920,N,01222.9510,E,000138,V*38

$GPRMB,,,,,,,,,,,,,*66

$GPRMC,000138,V,5907.1920,N,01222.9510,E,0.0,0.0,010200,1.1,E*67

$GPGGA,000138,5907.1920,N,01222.9510,E,0,0,99.00,82,M,,,,*01

$GPGSA,A,1,,,,,,,,,,,,,,99.00,99.00,0.00*2C

$GPGSV,1,1,1,123,22,194,*44

$SDVLW,0.0,N,0.0,N*5A

$SDVHW,,T,,M,0.0,N,0.0,K*42

$SDMTW,,,C*36

$SDDPT,,*57

$SDDBT,,,,,,*45

$GPAPB,,,,,,,,,,,,,,*44

$GPGLL,5907.1920,N,01222.9510,E,000140,V*37

$GPRMB,,,,,,,,,,,,,*66

$GPRMC,000140,V,5907.1920,N,01222.9510,E,0.0,0.0,010200,1.1,E*68

$GPGGA,000140,5907.1920,N,01222.9510,E,0,0,99.00,82,M,,,,*0E

$GPGSA,A,1,,,,,,,,,,,,,,99.00,99.00,0.00*2C

$GPGSV,1,1,1,123,22,194,*44

$SDVLW,0.0,N,0.0,N*5A

$SDVHW,,T,,M,0.0,N,0.0,K*42

$SDMTW,,,C*36

$SDDPT,,*57

$SDDBT,,,,,,*45

$GPAPB,,,,,,,,,,,,,,*44

$GPGLL,5907.1920,N,01222.9510,E,000142,V*35

$GPRMB,,,,,,,,,,,,,*66

$GPRMC,000142,V,5907.1920,N,01222.9510,E,0.0,0.0,010200,1.1,E*6A

$GPGGA,000142,5907.1920,N,01222.9510,E,0,0,99.00,82,M,,,,*0C

$GPGSA,A,1,,,,,,,,,,,,,,99.00,99.00,0.00*2C

$GPGSV,1,1,1,123,22,194,*44

$SDVLW,0.0,N,0.0,N*5A

$SDVHW,,T,,M,0.0,N,0.0,K*42

$SDMTW,,,C*36

$SDDPT,,*57

$SDDBT,,,,,,*45

$GPAPB,,,,,,,,,,,,,,*44

$GPGLL,5907.1920,N,01222.9510,E,000144,V*33

$GPRMB,,,,,,,,,,,,,*66

$GPRMC,000144,V,5907.1920,N,01222.9510,E,0.0,0.0,010200,1.1,E*6C

$GPGGA,000144,5907.1920,N,01222.9510,E,0,0,99.00,82,M,,,,*0A

$GPGSA,A,1,,,,,,,,,,,,,,99.00,99.00,0.00*2C

$GPGSV,1,1,1,123,22,194,*44

$SDVLW,0.0,N,0.0,N*5A

$SDVHW,,T,,M,0.0,N,0.0,K*42

$SDMTW,,,C*36

$SDDPT,,*57

$SDDBT,,,,,,*45

$GPAPB,,,,,,,,,,,,,,*44

$GPGLL,5907.1920,N,01222.9510,E,000146,V*31

$GPRMB,,,,,,,,,,,,,*66

$GPRMC,000146,V,5907.1920,N,01222.9510,E,0.0,0.0,010200,1.1,E*6E

$GPGGA,000146,5907.1920,N,01222.9510,E,0,0,99.00,82,M,,,,*08

$GPGSA,A,1,,,,,,,,,,,,,,99.00,99.00,0.00*2C

$GPGSV,1,1,1,123,22,194,*44

$SDVLW,0.0,N,0.0,N*5A

$SDVHW,,T,,M,0.0,N,0.0,K*42

$SDMTW,,,C*36

$SDDPT,,*57

$SDDBT,,,,,,*45

$GPAPB,,,,,,,,,,,,,,*44

$GPGLL,5907.1920,N,01222.9510,E,000148,V*3F

$GPRMB,,,,,,,,,,,,,*66

$GPRMC,000148,V,5907.1920,N,01222.9510,E,0.0,0.0,010200,1.1,E*60

$GPGGA,000148,5907.1920,N,01222.9510,E,0,0,99.00,82,M,,,,*06

$GPGSA,A,1,,,,,,,,,,,,,,99.00,99.00,0.00*2C

$GPGSV,1,1,1,123,22,194,*44

$SDVLW,0.0,N,0.0,N*5A

$SDVHW,,T,,M,0.0,N,0.0,K*42

$SDMTW,,,C*36

$SDDPT,,*57

$SDDBT,,,,,,*45

$GPAPB,,,,,,,,,,,,,,*44

$GPGLL,5907.1920,N,01222.9510,E,000150,V*36

$GPRMB,,,,,,,,,,,,,*66

$GPRMC,000150,V,5907.1920,N,01222.9510,E,0.0,0.0,010200,1.1,E*69

$GPGGA,000150,5907.1920,N,01222.9510,E,0,0,99.00,82,M,,,,*0F

$GPGSA,A,1,,,,,,,,,,,,,,99.00,99.00,0.00*2C

$GPGSV,1,1,1,123,22,194,*44

$SDVLW,0.0,N,0.0,N*5A

$SDVHW,,T,,M,0.0,N,0.0,K*42

$SDMTW,,,C*36

$SDDPT,,*57

$SDDBT,,,,,,*45

$GPAPB,,,,,,,,,,,,,,*44

$GPGLL,5907.1920,N,01222.9510,E,000152,V*34

$GPRMB,,,,,,,,,,,,,*66

$GPRMC,000152,V,5907.1920,N,01222.9510,E,0.0,0.0,010200,1.1,E*6B

$GPGGA,000152,5907.1920,N,01222.9510,E,0,0,99.00,82,M,,,,*0D

$GPGSA,A,1,,,,,,,,,,,,,,99.00,99.00,0.00*2C

$GPGSV,1,1,1,123,22,194,*44

$SDVLW,0.0,N,0.0,N*5A

$SDVHW,,T,,M,0.0,N,0.0,K*42

$SDMTW,,,C*36

$SDDPT,,*57

$SDDBT,,,,,,*45

$GPAPB,,,,,,,,,,,,,,*44

$GPGLL,5907.1920,N,01222.9510,E,000154,V*32

$GPRMB,,,,,,,,,,,,,*66

$GPRMC,000154,V,5907.1920,N,01222.9510,E,0.0,0.0,010200,1.1,E*6D

$GPGGA,000154,5907.1920,N,01222.9510,E,0,0,99.00,82,M,,,,*0B

$GPGSA,A,1,,,,,,,,,,,,,,99.00,99.00,0.00*2C

$GPGSV,1,1,1,123,22,194,*44

$SDVLW,0.0,N,0.0,N*5A

$SDVHW,,T,,M,0.0,N,0.0,K*42

$SDMTW,,,C*36

$SDDPT,,*57

$SDDBT,,,,,,*45

$GPAPB,,,,,,,,,,,,,,*44

$GPGLL,5907.1920,N,01222.9510,E,000156,V*30

$GPRMB,,,,,,,,,,,,,*66

$GPRMC,000156,V,5907.1920,N,01222.9510,E,0.0,0.0,010200,1.1,E*6F

$GPGGA,000156,5907.1920,N,01222.9510,E,0,0,99.00,82,M,,,,*09

$GPGSA,A,1,,,,,,,,,,,,,,99.00,99.00,0.00*2C

$GPGSV,1,1,1,123,22,194,*44

$SDVLW,0.0,N,0.0,N*5A

$SDVHW,,T,,M,0.0,N,0.0,K*42

$SDMTW,,,C*36

$SDDPT,,*57

$SDDBT,,,,,,*45

$GPAPB,,,,,,,,,,,,,,*44

$GPGLL,5907.1920,N,01222.9510,E,000158,V*3E

$GPRMB,,,,,,,,,,,,,*66

$GPRMC,000158,V,5907.1920,N,01222.9510,E,0.0,0.0,010200,1.1,E*61

$GPGGA,000158,5907.1920,N,01222.9510,E,0,0,99.00,82,M,,,,*07

$GPGSA,A,1,,,,,,,,,,,,,,99.00,99.00,0.00*2C

$GPGSV,1,1,1,123,22,194,*44

$SDVLW,0.0,N,0.0,N*5A

$SDVHW,,T,,M,0.0,N,0.0,K*42

$SDMTW,,,C*36

$SDDPT,,*57

$SDDBT,,,,,,*45

$GPAPB,,,,,,,,,,,,,,*44

$GPGLL,5907.1920,N,01222.9510,E,000200,V*30

$GPRMB,,,,,,,,,,,,,*66

$GPRMC,000200,V,5907.1920,N,01222.9510,E,0.0,0.0,010200,1.1,E*6F

$GPGGA,000200,5907.1920,N,01222.9510,E,0,0,99.00,82,M,,,,*09

$GPGSA,A,1,,,,,,,,,,,,,,99.00,99.00,0.00*2C

$GPGSV,1,1,1,123,22,194,*44

$SDVLW,0.0,N,0.0,N*5A

$SDVHW,,T,,M,0.0,N,0.0,K*42

$SDMTW,,,C*36

$SDDPT,,*57

$SDDBT,,,,,,*45

$GPAPB,,,,,,,,,,,,,,*44

$GPGLL,5907.1920,N,01222.9510,E,000202,V*32

$GPRMB,,,,,,,,,,,,,*66

$GPRMC,000202,V,5907.1920,N,01222.9510,E,0.0,0.0,010200,1.1,E*6D

$GPGGA,000202,5907.1920,N,01222.9510,E,0,0,99.00,82,M,,,,*0B

$GPGSA,A,1,,,,,,,,,,,,,,99.00,99.00,0.00*2C

$GPGSV,1,1,1,123,22,194,*44

$SDVLW,0.0,N,0.0,N*5A

$SDVHW,,T,,M,0.0,N,0.0,K*42

$SDMTW,,,C*36

$SDDPT,,*57

$SDDBT,,,,,,*45

$GPAPB,,,,,,,,,,,,,,*44

$GPGLL,5907.1920,N,01222.9510,E,000204,V*34

$GPRMB,,,,,,,,,,,,,*66

$GPRMC,000204,V,5907.1920,N,01222.9510,E,0.0,0.0,010200,1.1,E*6B

$GPGGA,000204,5907.1920,N,01222.9510,E,0,0,99.00,82,M,,,,*0D

$GPGSA,A,1,,,,,,,,,,,,,,99.00,99.00,0.00*2C

$GPGSV,1,1,1,123,22,194,*44

$SDVLW,0.0,N,0.0,N*5A

$SDVHW,,T,,M,0.0,N,0.0,K*42

$SDMTW,,,C*36

$SDDPT,,*57

$SDDBT,,,,,,*45

$GPAPB,,,,,,,,,,,,,,*44

$GPGLL,5907.1920,N,01222.9510,E,000206,V*36

$GPRMB,,,,,,,,,,,,,*66

$GPRMC,000206,V,5907.1920,N,01222.9510,E,0.0,0.0,010200,1.1,E*69

$GPGGA,000206,5907.1920,N,01222.9510,E,0,0,99.00,82,M,,,,*0F

$GPGSA,A,1,,,,,,,,,,,,,,99.00,99.00,0.00*2C

$GPGSV,1,1,1,123,22,194,*44

$SDVLW,0.0,N,0.0,N*5A

$SDVHW,,T,,M,0.0,N,0.0,K*42

$SDMTW,,,C*36

$SDDPT,,*57

$SDDBT,,,,,,*45

$GPAPB,,,,,,,,,,,,,,*44

$GPGLL,5907.1920,N,01222.9510,E,000208,V*38

$GPRMB,,,,,,,,,,,,,*66

$GPRMC,000208,V,5907.1920,N,01222.9510,E,0.0,0.0,010200,1.1,E*67

$GPGGA,000208,5907.1920,N,01222.9510,E,0,0,99.00,82,M,,,,*01

$GPGSA,A,1,,,,,,,,,,,,,,99.00,99.00,0.00*2C

$GPGSV,1,1,1,123,22,194,*44

$SDVLW,0.0,N,0.0,N*5A

$SDVHW,,T,,M,0.0,N,0.0,K*42

$SDMTW,,,C*36

$SDDPT,,*57

$SDDBT,,,,,,*45

$GPAPB,,,,,,,,,,,,,,*44

$GPGLL,5907.1920,N,01222.9510,E,000210,V*31

$GPRMB,,,,,,,,,,,,,*66

$GPRMC,000210,V,5907.1920,N,01222.9510,E,0.0,0.0,010200,1.1,E*6E

$GPGGA,000210,5907.1920,N,01222.9510,E,0,0,99.00,82,M,,,,*08

$GPGSA,A,1,,,,,,,,,,,,,,99.00,99.00,0.00*2C

$GPGSV,1,1,1,123,22,194,*44

$SDVLW,0.0,N,0.0,N*5A

$SDVHW,,T,,M,0.0,N,0.0,K*42

$SDMTW,,,C*36

$SDDPT,,*57

$SDDBT,,,,,,*45

$GPAPB,,,,,,,,,,,,,,*44

$GPGLL,5907.1920,N,01222.9510,E,000212,V*33

$GPRMB,,,,,,,,,,,,,*66

$GPRMC,000212,V,5907.1920,N,01222.9510,E,0.0,0.0,010200,1.1,E*6C

$GPGGA,000212,5907.1920,N,01222.9510,E,0,0,99.00,82,M,,,,*0A

$GPGSA,A,1,,,,,,,,,,,,,,99.00,99.00,0.00*2C

$GPGSV,1,1,1,123,22,194,*44

$SDVLW,0.0,N,0.0,N*5A

$SDVHW,,T,,M,0.0,N,0.0,K*42

$SDMTW,,,C*36

$SDDPT,,*57

$SDDBT,,,,,,*45

$GPAPB,,,,,,,,,,,,,,*44

$GPGLL,5907.1920,N,01222.9510,E,000214,V*35

$GPRMB,,,,,,,,,,,,,*66

$GPRMC,000214,V,5907.1920,N,01222.9510,E,0.0,0.0,010200,1.1,E*6A

$GPGGA,000214,5907.1920,N,01222.9510,E,0,0,99.00,82,M,,,,*0C

$GPGSA,A,1,,,,,,,,,,,,,,99.00,99.00,0.00*2C

$GPGSV,1,1,1,123,22,194,*44

$SDVLW,0.0,N,0.0,N*5A

$SDVHW,,T,,M,0.0,N,0.0,K*42

$SDMTW,,,C*36

$SDDPT,,*57

$SDDBT,,,,,,*45

$GPAPB,,,,,,,,,,,,,,*44

$GPGLL,5907.1920,N,01222.9510,E,000216,V*37

$GPRMB,,,,,,,,,,,,,*66

$GPRMC,000216,V,5907.1920,N,01222.9510,E,0.0,0.0,010200,1.1,E*68

$GPGGA,000216,5907.1920,N,01222.9510,E,0,0,99.00,82,M,,,,*0E

$GPGSA,A,1,,,,,,,,,,,,,,99.00,99.00,0.00*2C

$GPGSV,1,1,1,123,22,194,*44

$SDVLW,0.0,N,0.0,N*5A

$SDVHW,,T,,M,0.0,N,0.0,K*42

$SDMTW,,,C*36

$SDDPT,,*57

$SDDBT,,,,,,*45

$GPAPB,,,,,,,,,,,,,,*44

$GPGLL,5907.1920,N,01222.9510,E,000218,V*39

$GPRMB,,,,,,,,,,,,,*66

$GPRMC,000218,V,5907.1920,N,01222.9510,E,0.0,0.0,010200,1.1,E*66

$GPGGA,000218,5907.1920,N,01222.9510,E,0,0,99.00,82,M,,,,*00

$GPGSA,A,1,,,,,,,,,,,,,,99.00,99.00,0.00*2C

$GPGSV,1,1,1,123,22,194,*44

$SDVLW,0.0,N,0.0,N*5A

$SDVHW,,T,,M,0.0,N,0.0,K*42

$SDMTW,,,C*36

$SDDPT,,*57

$SDDBT,,,,,,*45

$GPAPB,,,,,,,,,,,,,,*44

$GPGLL,5907.1920,N,01222.9510,E,000220,V*32

$GPRMB,,,,,,,,,,,,,*66

$GPRMC,000220,V,5907.1920,N,01222.9510,E,0.0,0.0,010200,1.1,E*6D

$GPGGA,000220,5907.1920,N,01222.9510,E,0,0,99.00,82,M,,,,*0B

$GPGSA,A,1,,,,,,,,,,,,,,99.00,99.00,0.00*2C

$GPGSV,1,1,1,123,22,194,*44

$SDVLW,0.0,N,0.0,N*5A

$SDVHW,,T,,M,0.0,N,0.0,K*42

$SDMTW,,,C*36

$SDDPT,,*57

$SDDBT,,,,,,*45

$GPAPB,,,,,,,,,,,,,,*44

$GPGLL,5907.1920,N,01222.9510,E,000222,V*30

$GPRMB,,,,,,,,,,,,,*66

$GPRMC,000222,V,5907.1920,N,01222.9510,E,0.0,0.0,010200,1.1,E*6F

$GPGGA,000222,5907.1920,N,01222.9510,E,0,0,99.00,82,M,,,,*09

$GPGSA,A,1,,,,,,,,,,,,,,99.00,99.00,0.00*2C

$GPGSV,1,1,1,123,22,194,*44

$SDVLW,0.0,N,0.0,N*5A

$SDVHW,,T,,M,0.0,N,0.0,K*42

$SDMTW,,,C*36

$SDDPT,,*57

$SDDBT,,,,,,*45

$GPAPB,,,,,,,,,,,,,,*44

$GPGLL,5907.1920,N,01222.9510,E,000224,V*36

$GPRMB,,,,,,,,,,,,,*66

$GPRMC,000224,V,5907.1920,N,01222.9510,E,0.0,0.0,010200,1.1,E*69

$GPGGA,000224,5907.1920,N,01222.9510,E,0,0,99.00,82,M,,,,*0F

$GPGSA,A,1,,,,,,,,,,,,,,99.00,99.00,0.00*2C

$GPGSV,1,1,1,123,22,194,*44

$SDVLW,0.0,N,0.0,N*5A

$SDVHW,,T,,M,0.0,N,0.0,K*42

$SDMTW,,,C*36

$SDDPT,,*57

$SDDBT,,,,,,*45

$GPAPB,,,,,,,,,,,,,,*44

$GPGLL,5907.1920,N,01222.9510,E,000226,V*34

$GPRMB,,,,,,,,,,,,,*66

$GPRMC,000226,V,5907.1920,N,01222.9510,E,0.0,0.0,010200,1.1,E*6B

$GPGGA,000226,5907.1920,N,01222.9510,E,0,0,99.00,82,M,,,,*0D

$GPGSA,A,1,,,,,,,,,,,,,,99.00,99.00,0.00*2C

$GPGSV,1,1,1,123,22,194,*44

$SDVLW,0.0,N,0.0,N*5A

$SDVHW,,T,,M,0.0,N,0.0,K*42

$SDMTW,,,C*36

$SDDPT,,*57

$SDDBT,,,,,,*45

$GPAPB,,,,,,,,,,,,,,*44

$GPGLL,5907.1920,N,01222.9510,E,000228,V*3A

$GPRMB,,,,,,,,,,,,,*66

$GPRMC,000228,V,5907.1920,N,01222.9510,E,0.0,0.0,010200,1.1,E*65

$GPGGA,000228,5907.1920,N,01222.9510,E,0,0,99.00,82,M,,,,*03

$GPGSA,A,1,,,,,,,,,,,,,,99.00,99.00,0.00*2C

$GPGSV,1,1,1,123,22,194,*44

$SDVLW,0.0,N,0.0,N*5A

$SDVHW,,T,,M,0.0,N,0.0,K*42

$SDMTW,,,C*36

$SDDPT,,*57

$SDDBT,,,,,,*45

$GPAPB,,,,,,,,,,,,,,*44

$GPGLL,5907.1920,N,01222.9510,E,000230,V*33

$GPRMB,,,,,,,,,,,,,*66

$GPRMC,000230,V,5907.1920,N,01222.9510,E,0.0,0.0,010200,1.1,E*6C

$GPGGA,000230,5907.1920,N,01222.9510,E,0,0,99.00,82,M,,,,*0A

$GPGSA,A,1,,,,,,,,,,,,,,99.00,99.00,0.00*2C

$GPGSV,1,1,1,123,22,194,*44

$SDVLW,0.0,N,0.0,N*5A

$SDVHW,,T,,M,0.0,N,0.0,K*42

$SDMTW,,,C*36

$SDDPT,,*57

$SDDBT,,,,,,*45

$GPGLL,5907.1920,N,01222.9510,E,000232,V*31

$GPRMB,,,,,,,,,,,,,*66

$GPRMC,000232,V,5907.1920,N,01222.9510,E,0.0,0.0,010200,1.1,E*6E

$GPGGA,000232,5907.1920,N,01222.9510,E,0,0,99.00,82,M,,,,*08

$GPGSA,A,1,,,,,,,,,,,,,,99.00,99.00,0.00*2C

$GPGSV,1,1,1,123,22,194,*44

$SDVLW,0.0,N,0.0,N*5A

$SDVHW,,T,,M,0.0,N,0.0,K*42

$SDMTW,,,C*36

$SDDPT,,*57

$SDDBT,,,,,,*45

$GPAPB,,,,,,,,,,,,,,*44

$GPGLL,5907.1920,N,01222.9510,E,000234,V*37

$GPRMB,,,,,,,,,,,,,*66

$GPRMC,000234,V,5907.1920,N,01222.9510,E,0.0,0.0,010200,1.1,E*68

$GPGGA,000234,5907.1920,N,01222.9510,E,0,0,99.00,82,M,,,,*0E

$GPGSA,A,1,,,,,,,,,,,,,,99.00,99.00,0.00*2C

$GPGSV,1,1,1,123,22,194,*44

$SDVLW,0.0,N,0.0,N*5A

$SDVHW,,T,,M,0.0,N,0.0,K*42

$SDMTW,,,C*36

$SDDPT,,*57

$SDDBT,,,,,,*45

$GPAPB,,,,,,,,,,,,,,*44

$GPGLL,5907.1920,N,01222.9510,E,000236,V*35

$GPRMB,,,,,,,,,,,,,*66

$GPRMC,000236,V,5907.1920,N,01222.9510,E,0.0,0.0,010200,1.1,E*6A

$GPGGA,000236,5907.1920,N,01222.9510,E,0,0,99.00,82,M,,,,*0C

$GPGSA,A,1,,,,,,,,,,,,,,99.00,99.00,0.00*2C

$GPGSV,1,1,1,123,22,194,*44

$SDVLW,0.0,N,0.0,N*5A

$SDVHW,,T,,M,0.0,N,0.0,K*42

$SDMTW,,,C*36

$SDDPT,,*57

$SDDBT,,,,,,*45

$GPAPB,,,,,,,,,,,,,,*44

$GPGLL,5907.1920,N,01222.9510,E,000238,V*3B

$GPRMB,,,,,,,,,,,,,*66

$GPRMC,000238,V,5907.1920,N,01222.9510,E,0.0,0.0,010200,1.1,E*64

$GPGGA,000238,5907.1920,N,01222.9510,E,0,0,99.00,82,M,,,,*02

$GPGSA,A,1,,,,,,,,,,,,,,99.00,99.00,0.00*2C

$GPGSV,1,1,1,123,22,194,*44

$SDVLW,0.0,N,0.0,N*5A

$SDVHW,,T,,M,0.0,N,0.0,K*42

$SDMTW,,,C*36

$SDDPT,,*57

$SDDBT,,,,,,*45

$GPAPB,,,,,,,,,,,,,,*44

$GPGLL,5907.1920,N,01222.9510,E,000240,V*34

$GPRMB,,,,,,,,,,,,,*66

$GPRMC,000240,V,5907.1920,N,01222.9510,E,0.0,0.0,010200,1.1,E*6B

$GPGGA,000240,5907.1920,N,01222.9510,E,0,0,99.00,82,M,,,,*0D

$GPGSA,A,1,,,,,,,,,,,,,,99.00,99.00,0.00*2C

$GPGSV,1,1,1,123,22,194,*44

$SDVLW,0.0,N,0.0,N*5A

$SDVHW,,T,,M,0.0,N,0.0,K*42

$SDMTW,,,C*36

$SDDPT,,*57

$SDDBT,,,,,,*45

$GPAPB,,,,,,,,,,,,,,*44

$GPGLL,5907.1920,N,01222.9510,E,000242,V*36

$GPRMB,,,,,,,,,,,,,*66

$GPRMC,000242,V,5907.1920,N,01222.9510,E,0.0,0.0,010200,1.1,E*69

$GPGGA,000242,5907.1920,N,01222.9510,E,0,0,99.00,82,M,,,,*0F

$GPGSA,A,1,,,,,,,,,,,,,,99.00,99.00,0.00*2C

$GPGSV,1,1,1,123,22,194,*44

$SDVLW,0.0,N,0.0,N*5A

$SDVHW,,T,,M,0.0,N,0.0,K*42

$SDMTW,,,C*36

$SDDPT,,*57

$SDDBT,,,,,,*45

$GPAPB,,,,,,,,,,,,,,*44

$GPGLL,5907.1920,N,01222.9510,E,000244,V*30

$GPRMB,,,,,,,,,,,,,*66

$GPRMC,000244,V,5907.1920,N,01222.9510,E,0.0,0.0,010200,1.1,E*6F

$GPGGA,000244,5907.1920,N,01222.9510,E,0,0,99.00,82,M,,,,*09

$GPGSA,A,1,,,,,,,,,,,,,,99.00,99.00,0.00*2C

$GPGSV,1,1,1,123,22,194,*44

$SDVLW,0.0,N,0.0,N*5A

$SDVHW,,T,,M,0.0,N,0.0,K*42

$SDMTW,,,C*36

$SDDPT,,*57

$SDDBT,,,,,,*45

$GPAPB,,,,,,,,,,,,,,*44

$GPRMB,,,,,,,,,,,,,*66

$GPRMC,000246,V,5907.1920,N,01222.9510,E,0.0,0.0,010200,1.1,E*6D

$GPGGA,000246,5907.1920,N,01222.9510,E,0,0,99.00,82,M,,,,*0B

$GPGSA,A,1,,,,,,,,,,,,,,99.00,99.00,0.00*2C

$GPGSV,1,1,1,123,22,194,*44

$SDVLW,0.0,N,0.0,N*5A

$SDVHW,,T,,M,0.0,N,0.0,K*42

$SDMTW,,,C*36

$SDDPT,,*57

$SDDBT,,,,,,*45

$GPAPB,,,,,,,,,,,,,,*44

$GPGLL,5907.1920,N,01222.9510,E,000248,V*3C

$GPRMB,,,,,,,,,,,,,*66

$GPRMC,000248,V,5907.1920,N,01222.9510,E,0.0,0.0,010200,1.1,E*63

$GPGGA,000248,5907.1920,N,01222.9510,E,0,0,99.00,82,M,,,,*05

$GPGSA,A,1,,,,,,,,,,,,,,99.00,99.00,0.00*2C

$GPGSV,1,1,1,123,22,194,*44

$SDVLW,0.0,N,0.0,N*5A

$SDVHW,,T,,M,0.0,N,0.0,K*42

$SDMTW,,,C*36

$SDDPT,,*57

$SDDBT,,,,,,*45

$GPAPB,,,,,,,,,,,,,,*44

$GPGLL,5907.1920,N,01222.9510,E,000250,V*35

$GPRMB,,,,,,,,,,,,,*66

$GPRMC,000250,V,5907.1920,N,01222.9510,E,0.0,0.0,010200,1.1,E*6A

$GPGGA,000250,5907.1920,N,01222.9510,E,0,0,99.00,82,M,,,,*0C

$GPGSA,A,1,,,,,,,,,,,,,,99.00,99.00,0.00*2C

$GPGSV,1,1,1,123,22,194,*44

$SDVLW,0.0,N,0.0,N*5A

$SDVHW,,T,,M,0.0,N,0.0,K*42

$SDMTW,,,C*36

$SDDPT,,*57

$SDDBT,,,,,,*45

$GPAPB,,,,,,,,,,,,,,*44

$GPGLL,5907.1920,N,01222.9510,E,000252,V*37

$GPRMC,000252,V,5907.1920,N,01222.9510,E,0.0,0.0,010200,1.1,E*68

$GPGSA,A,1,,,,,,,,,,,,,,99.00,99.00,0.00*2C

$GPRMC,000254,V,5907.1920,N,01222.9510,E,0.0,0.0,010200,1.1,E*6E

$GPGGA,000254,5907.1920,N,01222.9510,E,0,0,99.00,82,M,,,,*08

$GPGSA,A,1,,,,,,,,,,,,,,99.00,99.00,0.00*2C

$SDVHW,,T,,M,0.0,N,0.0,K*42

$SDMTW,,,C*36

$GPGLL,5907.1920,N,01222.9510,E,000256,V*33

$GPRMB,,,,,,,,,,,,,*66

$GPRMC,000256,V,5907.1920,N,01222.9510,E,0.0,0.0,010200,1.1,E*6C

$GPGGA,000256,5907.1920,N,01222.9510,E,0,0,99.00,82,M,,,,*0A

$GPGSA,A,1,,,,,,,,,,,,,,99.00,99.00,0.00*2C

$GPGSV,1,1,1,123,22,194,*44

$SDVHW,,T,,M,0.0,N,0.0,K*42

$SDMTW,,,C*36

$SDDPT,,*57

$SDDBT,,,,,,*45

$GPAPB,,,,,,,,,,,,,,*44

$GPRMB,,,,,,,,,,,,,*66

$GPRMC,000258,V,5907.1920,N,01222.9510,E,0.0,0.0,010200,1.1,E*62

$GPGGA,000258,5907.1920,N,01222.9510,E,0,0,99.00,82,M,,,,*04

$GPGSA,A,1,,,,,,,,,,,,,,99.00,99.00,0.00*2C

$GPGSV,1,1,1,123,22,194,*44

$SDVLW,0.0,N,0.0,N*5A

$SDVHW,,T,,M,0.0,N,0.0,K*42

$SDMTW,,,C*36

$SDDPT,,*57

$SDDBT,,,,,,*45

$GPAPB,,,,,,,,,,,,,,*44

$GPGLL,5907.1920,N,01222.9510,E,000300,V*31

$GPRMB,,,,,,,,,,,,,*66

$GPRMC,000300,V,5907.1920,N,01222.9510,E,0.0,0.0,010200,1.1,E*6E

$GPGGA,000300,5907.1920,N,01222.9510,E,0,0,99.00,82,M,,,,*08

$GPGSA,A,1,,,,,,,,,,,,,,99.00,99.00,0.00*2C

$GPGSV,1,1,1,123,22,194,*44

$SDVLW,0.0,N,0.0,N*5A

$SDVHW,,T,,M,0.0,N,0.0,K*42

$SDMTW,,,C*36

$SDDPT,,*57

$SDDBT,,,,,,*45

$GPAPB,,,,,,,,,,,,,,*44

$GPGLL,5907.1920,N,01222.9510,E,000302,V*33

$GPRMB,,,,,,,,,,,,,*66

$GPRMC,000302,V,5907.1920,N,01222.9510,E,0.0,0.0,010200,1.1,E*6C

$GPGGA,000302,5907.1920,N,01222.9510,E,0,0,99.00,82,M,,,,*0A

$GPGSA,A,1,,,,,,,,,,,,,,99.00,99.00,0.00*2C

$GPGSV,1,1,1,123,22,194,*44

$SDVLW,0.0,N,0.0,N*5A

$SDVHW,,T,,M,0.0,N,0.0,K*42

$SDMTW,,,C*36

$SDDPT,,*57

$SDDBT,,,,,,*45

$GPAPB,,,,,,,,,,,,,,*44

$GPGLL,5907.1920,N,01222.9510,E,000304,V*35

$GPRMB,,,,,,,,,,,,,*66

$GPRMC,000304,V,5907.1920,N,01222.9510,E,0.0,0.0,010200,1.1,E*6A

$GPGGA,000304,5907.1920,N,01222.9510,E,0,0,99.00,82,M,,,,*0C

$GPGSA,A,1,,,,,,,,,,,,,,99.00,99.00,0.00*2C

$GPGSV,1,1,2,15,,0,,123,22,194,*73

$SDVLW,0.0,N,0.0,N*5A

$SDVHW,,T,,M,0.0,N,0.0,K*42

$SDMTW,,,C*36

$SDDPT,,*57

$SDDBT,,,,,,*45

$GPAPB,,,,,,,,,,,,,,*44

$GPGLL,5907.1920,N,01222.9510,E,000306,V*37

$GPRMB,,,,,,,,,,,,,*66

$GPRMC,000306,V,5907.1920,N,01222.9510,E,0.0,0.0,010200,1.1,E*68

$GPGGA,000306,5907.1920,N,01222.9510,E,0,0,99.00,82,M,,,,*0E

$GPGSA,A,1,,,,,,,,,,,,,,99.00,99.00,0.00*2C

$GPGSV,1,1,2,15,,0,,123,22,194,*73

$SDVLW,0.0,N,0.0,N*5A

$SDVHW,,T,,M,0.0,N,0.0,K*42

$SDMTW,,,C*36

$SDDPT,,*57

$SDDBT,,,,,,*45

$GPAPB,,,,,,,,,,,,,,*44

$GPGLL,5907.1920,N,01222.9510,E,000308,V*39

$GPRMB,,,,,,,,,,,,,*66

$GPRMC,000308,V,5907.1920,N,01222.9510,E,0.0,0.0,010200,1.1,E*66

$GPGGA,000308,5907.1920,N,01222.9510,E,0,0,99.00,82,M,,,,*00

$GPGSA,A,1,,,,,,,,,,,,,,99.00,99.00,0.00*2C

$GPGSV,1,1,2,15,,0,,123,22,194,*73

$SDVLW,0.0,N,0.0,N*5A

$SDVHW,,T,,M,0.0,N,0.0,K*42

$SDMTW,,,C*36

$SDDPT,,*57

$SDDBT,,,,,,*45

$GPAPB,,,,,,,,,,,,,,*44

$GPGLL,5907.1920,N,01222.9510,E,000310,V*30

$GPRMB,,,,,,,,,,,,,*66

$GPRMC,000310,V,5907.1920,N,01222.9510,E,0.0,0.0,010200,1.1,E*6F

$GPGGA,000310,5907.1920,N,01222.9510,E,0,0,99.00,82,M,,,,*09

$GPGSA,A,1,,,,,,,,,,,,,,99.00,99.00,0.00*2C

$GPGSV,1,1,2,15,,0,,123,22,194,*73

$SDVLW,0.0,N,0.0,N*5A

$SDVHW,,T,,M,0.0,N,0.0,K*42

$SDMTW,,,C*36

$SDDPT,,*57

$SDDBT,,,,,,*45

$GPAPB,,,,,,,,,,,,,,*44

$GPGLL,5907.1920,N,01222.9510,E,000312,V*32

$GPRMB,,,,,,,,,,,,,*66

$GPRMC,000312,V,5907.1920,N,01222.9510,E,0.0,0.0,010200,1.1,E*6D

$GPGGA,000312,5907.1920,N,01222.9510,E,0,0,99.00,82,M,,,,*0B

$GPGSA,A,1,,,,,,,,,,,,,,99.00,99.00,0.00*2C

$GPGSV,1,1,1,123,22,194,*44

$SDVLW,0.0,N,0.0,N*5A

$SDVHW,,T,,M,0.0,N,0.0,K*42

$SDMTW,,,C*36

$SDDPT,,*57

$SDDBT,,,,,,*45

$GPAPB,,,,,,,,,,,,,,*44

$GPGLL,5907.1920,N,01222.9510,E,000314,V*34

$GPRMB,,,,,,,,,,,,,*66

$GPRMC,000314,V,5907.1920,N,01222.9510,E,0.0,0.0,010200,1.1,E*6B

$GPGGA,000314,5907.1920,N,01222.9510,E,0,0,99.00,82,M,,,,*0D

$GPGSA,A,1,,,,,,,,,,,,,,99.00,99.00,0.00*2C

$GPGSV,1,1,1,123,22,194,*44

$SDVLW,0.0,N,0.0,N*5A

$SDVHW,,T,,M,0.0,N,0.0,K*42

$SDMTW,,,C*36

$SDDPT,,*57

$SDDBT,,,,,,*45

$GPAPB,,,,,,,,,,,,,,*44

$GPGLL,5907.1920,N,01222.9510,E,000316,V*36

$GPRMB,,,,,,,,,,,,,*66

$GPRMC,000316,V,5907.1920,N,01222.9510,E,0.0,0.0,010200,1.1,E*69

$GPGGA,000316,5907.1920,N,01222.9510,E,0,0,99.00,82,M,,,,*0F

$GPGSA,A,1,,,,,,,,,,,,,,99.00,99.00,0.00*2C

$GPGSV,1,1,1,123,22,194,*44

$SDVLW,0.0,N,0.0,N*5A

$SDVHW,,T,,M,0.0,N,0.0,K*42

$SDMTW,,,C*36

$SDDPT,,*57

$SDDBT,,,,,,*45

$GPAPB,,,,,,,,,,,,,,*44

$GPGLL,5907.1920,N,01222.9510,E,000318,V*38

$GPRMB,,,,,,,,,,,,,*66

$GPRMC,000318,V,5907.1920,N,01222.9510,E,0.0,0.0,010200,1.1,E*67

$GPGGA,000318,5907.1920,N,01222.9510,E,0,0,99.00,82,M,,,,*01

$GPGSA,A,1,,,,,,,,,,,,,,99.00,99.00,0.00*2C

$GPGSV,1,1,1,123,22,194,*44

$SDVLW,0.0,N,0.0,N*5A

$SDVHW,,T,,M,0.0,N,0.0,K*42

$SDMTW,,,C*36

$SDDPT,,*57

$SDDBT,,,,,,*45

$GPAPB,,,,,,,,,,,,,,*44

$GPGLL,5907.1920,N,01222.9510,E,000320,V*33

$GPRMB,,,,,,,,,,,,,*66

$GPRMC,000320,V,5907.1920,N,01222.9510,E,0.0,0.0,010200,1.1,E*6C

$GPGGA,000320,5907.1920,N,01222.9510,E,0,0,99.00,82,M,,,,*0A

$GPGSA,A,1,,,,,,,,,,,,,,99.00,99.00,0.00*2C

$GPGSV,1,1,1,123,22,194,*44

$SDVLW,0.0,N,0.0,N*5A

$SDVHW,,T,,M,0.0,N,0.0,K*42

$SDMTW,,,C*36

$SDDPT,,*57

$SDDBT,,,,,,*45

$GPAPB,,,,,,,,,,,,,,*44

$GPGLL,5907.1920,N,01222.9510,E,000322,V*31

$GPRMB,,,,,,,,,,,,,*66

$GPRMC,000322,V,5907.1920,N,01222.9510,E,0.0,0.0,010200,1.1,E*6E

$GPGGA,000322,5907.1920,N,01222.9510,E,0,0,99.00,82,M,,,,*08

$GPGSA,A,1,,,,,,,,,,,,,,99.00,99.00,0.00*2C

$GPGSV,1,1,1,123,22,194,*44

$SDVLW,0.0,N,0.0,N*5A

$SDVHW,,T,,M,0.0,N,0.0,K*42

$SDMTW,,,C*36

$SDDPT,,*57

$SDDBT,,,,,,*45

$GPAPB,,,,,,,,,,,,,,*44

$GPGLL,5907.1920,N,01222.9510,E,000324,V*37

$GPRMB,,,,,,,,,,,,,*66

$GPRMC,000324,V,5907.1920,N,01222.9510,E,0.0,0.0,010200,1.1,E*68

$GPGGA,000324,5907.1920,N,01222.9510,E,0,0,99.00,82,M,,,,*0E

$GPGSA,A,1,,,,,,,,,,,,,,99.00,99.00,0.00*2C

$GPGSV,1,1,2,28,,0,,123,22,194,*7D

$SDVLW,0.0,N,0.0,N*5A

$SDVHW,,T,,M,0.0,N,0.0,K*42

$SDMTW,,,C*36

$SDDPT,,*57

$SDDBT,,,,,,*45

$GPAPB,,,,,,,,,,,,,,*44

$GPGLL,5907.1920,N,01222.9510,E,000326,V*35

$GPRMB,,,,,,,,,,,,,*66

$GPRMC,000326,V,5907.1920,N,01222.9510,E,0.0,0.0,010200,1.1,E*6A

$GPGGA,000326,5907.1920,N,01222.9510,E,0,0,99.00,82,M,,,,*0C

$GPGSA,A,1,,,,,,,,,,,,,,99.00,99.00,0.00*2C

$GPGSV,1,1,2,28,,0,,123,22,194,*7D

$SDVLW,0.0,N,0.0,N*5A

$SDVHW,,T,,M,0.0,N,0.0,K*42

$SDMTW,,,C*36

$SDDPT,,*57

$SDDBT,,,,,,*45

$GPAPB,,,,,,,,,,,,,,*44

$GPGLL,5907.1920,N,01222.9510,E,000328,V*3B

$GPRMB,,,,,,,,,,,,,*66

$GPRMC,000328,V,5907.1920,N,01222.9510,E,0.0,0.0,010200,1.1,E*64

$GPGGA,000328,5907.1920,N,01222.9510,E,0,0,99.00,82,M,,,,*02

$GPGSA,A,1,,,,,,,,,,,,,,99.00,99.00,0.00*2C

$GPGSV,1,1,2,28,,0,,123,22,194,*7D

$SDVLW,0.0,N,0.0,N*5A

$SDVHW,,T,,M,0.0,N,0.0,K*42

$SDMTW,,,C*36

$SDDPT,,*57

$SDDBT,,,,,,*45

$GPAPB,,,,,,,,,,,,,,*44

$GPGLL,5907.1920,N,01222.9510,E,000330,V*32

$GPRMB,,,,,,,,,,,,,*66

$GPRMC,000330,V,5907.1920,N,01222.9510,E,0.0,0.0,010200,1.1,E*6D

$GPGGA,000330,5907.1920,N,01222.9510,E,0,0,99.00,82,M,,,,*0B

$GPGSA,A,1,,,,,,,,,,,,,,99.00,99.00,0.00*2C

$GPGSV,1,1,3,11,,0,,28,,0,,123,22,194,*4C

$SDVLW,0.0,N,0.0,N*5A

$SDVHW,,T,,M,0.0,N,0.0,K*42

$SDMTW,,,C*36

$SDDPT,,*57

$SDDBT,,,,,,*45

$GPAPB,,,,,,,,,,,,,,*44

$GPGLL,5907.1920,N,01222.9510,E,000332,V*30

$GPRMB,,,,,,,,,,,,,*66

$GPRMC,000332,V,5907.1920,N,01222.9510,E,0.0,0.0,010200,1.1,E*6F

$GPGGA,000332,5907.1920,N,01222.9510,E,0,0,99.00,82,M,,,,*09

$GPGSA,A,1,,,,,,,,,,,,,,99.00,99.00,0.00*2C

$GPGSV,1,1,3,11,,0,,28,,0,,123,22,194,*4C

$SDVLW,0.0,N,0.0,N*5A

$SDVHW,,T,,M,0.0,N,0.0,K*42

$SDMTW,,,C*36

$SDDPT,,*57

$SDDBT,,,,,,*45

$GPAPB,,,,,,,,,,,,,,*44

$GPGLL,5907.1920,N,01222.9510,E,000334,V*36

$GPRMB,,,,,,,,,,,,,*66

$GPRMC,000334,V,5907.1920,N,01222.9510,E,0.0,0.0,010200,1.1,E*69

$GPGGA,000334,5907.1920,N,01222.9510,E,0,0,99.00,82,M,,,,*0F

$GPGSA,A,1,,,,,,,,,,,,,,99.00,99.00,0.00*2C

$GPGSV,1,1,3,11,,0,,28,,0,,123,22,194,*4C

$SDVLW,0.0,N,0.0,N*5A

$SDVHW,,T,,M,0.0,N,0.0,K*42

$SDMTW,,,C*36

$SDDPT,,*57

$SDDBT,,,,,,*45

$GPAPB,,,,,,,,,,,,,,*44

$GPGLL,5907.1920,N,01222.9510,E,000336,V*34

$GPRMB,,,,,,,,,,,,,*66

$GPRMC,000336,V,5907.1920,N,01222.9510,E,0.0,0.0,010200,1.1,E*6B

$GPGGA,000336,5907.1920,N,01222.9510,E,0,0,99.00,82,M,,,,*0D

$GPGSA,A,1,,,,,,,,,,,,,,99.00,99.00,0.00*2C

$GPGSV,1,1,3,11,,0,,28,,0,,123,22,194,*4C

$SDVLW,0.0,N,0.0,N*5A

$SDVHW,,T,,M,0.0,N,0.0,K*42

$SDMTW,,,C*36

$SDDPT,,*57

$SDDBT,,,,,,*45

$GPAPB,,,,,,,,,,,,,,*44

$GPGLL,5907.1920,N,01222.9510,E,000338,V*3A

$GPRMB,,,,,,,,,,,,,*66

$GPRMC,000338,V,5907.1920,N,01222.9510,E,0.0,0.0,010200,1.1,E*65

$GPGGA,000338,5907.1920,N,01222.9510,E,0,0,99.00,82,M,,,,*03

$GPGSA,A,1,,,,,,,,,,,,,,99.00,99.00,0.00*2C

$GPGSV,1,1,3,11,,0,,28,,0,,123,22,194,*4C

$SDVLW,0.0,N,0.0,N*5A

$SDVHW,,T,,M,0.0,N,0.0,K*42

$SDMTW,,,C*36

$SDDPT,,*57

$SDDBT,,,,,,*45

$GPAPB,,,,,,,,,,,,,,*44

$GPGLL,5907.1920,N,01222.9510,E,000340,V*35

$GPRMB,,,,,,,,,,,,,*66

$GPRMC,000340,V,5907.1920,N,01222.9510,E,0.0,0.0,010200,1.1,E*6A

$GPGGA,000340,5907.1920,N,01222.9510,E,0,0,99.00,82,M,,,,*0C

$GPGSA,A,1,,,,,,,,,,,,,,99.00,99.00,0.00*2C

$GPGSV,1,1,3,11,,0,,28,,0,,123,22,194,*4C

$SDVLW,0.0,N,0.0,N*5A

$SDVHW,,T,,M,0.0,N,0.0,K*42

$SDMTW,,,C*36

$SDDPT,,*57

$SDDBT,,,,,,*45

$GPAPB,,,,,,,,,,,,,,*44

$GPGLL,5907.1920,N,01222.9510,E,000342,V*37

$GPRMB,,,,,,,,,,,,,*66

$GPRMC,000342,V,5907.1920,N,01222.9510,E,0.0,0.0,010200,1.1,E*68

$GPGGA,000342,5907.1920,N,01222.9510,E,0,0,99.00,82,M,,,,*0E

$GPGSA,A,1,,,,,,,,,,,,,,99.00,99.00,0.00*2C

$GPGSV,1,1,3,11,,0,,28,,0,,123,22,194,*4C

$SDVLW,0.0,N,0.0,N*5A

$SDVHW,,T,,M,0.0,N,0.0,K*42

$SDMTW,,,C*36

$SDDPT,,*57

$SDDBT,,,,,,*45

$GPAPB,,,,,,,,,,,,,,*44

$GPGLL,5907.1920,N,01222.9510,E,000344,V*31

$GPRMB,,,,,,,,,,,,,*66

$GPRMC,000344,V,5907.1920,N,01222.9510,E,0.0,0.0,010200,1.1,E*6E

$GPGGA,000344,5907.1920,N,01222.9510,E,0,0,99.00,82,M,,,,*08

$GPGSA,A,1,,,,,,,,,,,,,,99.00,99.00,0.00*2C

$GPGSV,1,1,2,28,,0,,123,22,194,*7D

$SDVLW,0.0,N,0.0,N*5A

$SDVHW,,T,,M,0.0,N,0.0,K*42

$SDMTW,,,C*36

$SDDPT,,*57

$SDDBT,,,,,,*45

$GPAPB,,,,,,,,,,,,,,*44

$GPGLL,5907.1920,N,01222.9510,E,000346,V*33

$GPRMB,,,,,,,,,,,,,*66

$GPRMC,000346,V,5907.1920,N,01222.9510,E,0.0,0.0,010200,1.1,E*6C

$GPGGA,000346,5907.1920,N,01222.9510,E,0,0,99.00,82,M,,,,*0A

$GPGSA,A,1,,,,,,,,,,,,,,99.00,99.00,0.00*2C

$GPGSV,1,1,2,28,,0,,123,22,194,*7D

$SDVLW,0.0,N,0.0,N*5A

$SDVHW,,T,,M,0.0,N,0.0,K*42

$SDMTW,,,C*36

$SDDPT,,*57

$SDDBT,,,,,,*45

$GPAPB,,,,,,,,,,,,,,*44

$GPGLL,5907.1920,N,01222.9510,E,000348,V*3D

$GPRMB,,,,,,,,,,,,,*66

$GPRMC,000348,V,5907.1920,N,01222.9510,E,0.0,0.0,010200,1.1,E*62

$GPGGA,000348,5907.1920,N,01222.9510,E,0,0,99.00,82,M,,,,*04

$GPGSA,A,1,,,,,,,,,,,,,,99.00,99.00,0.00*2C

$GPGSV,1,1,2,28,,0,,123,22,194,*7D

$SDVLW,0.0,N,0.0,N*5A

$SDVHW,,T,,M,0.0,N,0.0,K*42

$SDMTW,,,C*36

$SDDPT,,*57

$SDDBT,,,,,,*45

$GPAPB,,,,,,,,,,,,,,*44

$GPGLL,5907.1920,N,01222.9510,E,000350,V*34

$GPRMB,,,,,,,,,,,,,*66

$GPRMC,000350,V,5907.1920,N,01222.9510,E,0.0,0.0,010200,1.1,E*6B

$GPGGA,000350,5907.1920,N,01222.9510,E,0,0,99.00,82,M,,,,*0D

$GPGSA,A,1,,,,,,,,,,,,,,99.00,99.00,0.00*2C

$GPGSV,1,1,2,28,,0,,123,22,194,*7D

$SDVLW,0.0,N,0.0,N*5A

$SDVHW,,T,,M,0.0,N,0.0,K*42

$SDMTW,,,C*36

$SDDPT,,*57

$SDDBT,,,,,,*45

$GPAPB,,,,,,,,,,,,,,*44

$GPGLL,5907.1920,N,01222.9510,E,000352,V*36

$GPRMB,,,,,,,,,,,,,*66

$GPRMC,000352,V,5907.1920,N,01222.9510,E,0.0,0.0,010200,1.1,E*69

$GPGGA,000352,5907.1920,N,01222.9510,E,0,0,99.00,82,M,,,,*0F

$GPGSA,A,1,,,,,,,,,,,,,,99.00,99.00,0.00*2C

$GPGSV,1,1,2,28,,0,,123,22,194,*7D

$SDVLW,0.0,N,0.0,N*5A

$SDVHW,,T,,M,0.0,N,0.0,K*42

$SDMTW,,,C*36

$SDDPT,,*57

$SDDBT,,,,,,*45

$GPAPB,,,,,,,,,,,,,,*44

$GPGLL,5907.1920,N,01222.9510,E,000354,V*30

$GPRMB,,,,,,,,,,,,,*66

$GPRMC,000354,V,5907.1920,N,01222.9510,E,0.0,0.0,010200,1.1,E*6F

$GPGGA,000354,5907.1920,N,01222.9510,E,0,0,99.00,82,M,,,,*09

$GPGSA,A,1,,,,,,,,,,,,,,99.00,99.00,0.00*2C

$GPGSV,1,1,2,28,,0,,123,22,194,*7D

$SDVLW,0.0,N,0.0,N*5A

$SDVHW,,T,,M,0.0,N,0.0,K*42

$SDMTW,,,C*36

$SDDPT,,*57

$SDDBT,,,,,,*45

$GPAPB,,,,,,,,,,,,,,*44

$GPGLL,5907.1920,N,01222.9510,E,000356,V*32

$GPRMB,,,,,,,,,,,,,*66

$GPRMC,000356,V,5907.1920,N,01222.9510,E,0.0,0.0,010200,1.1,E*6D

$GPGGA,000356,5907.1920,N,01222.9510,E,0,0,99.00,82,M,,,,*0B

$GPGSA,A,1,,,,,,,,,,,,,,99.00,99.00,0.00*2C

$GPGSV,1,1,2,28,,0,,123,22,194,*7D

$SDVLW,0.0,N,0.0,N*5A

$SDVHW,,T,,M,0.0,N,0.0,K*42

$SDMTW,,,C*36

$SDDPT,,*57

$SDDBT,,,,,,*45

$GPAPB,,,,,,,,,,,,,,*44

$GPGLL,5907.1920,N,01222.9510,E,000358,V*3C

$GPRMB,,,,,,,,,,,,,*66

$GPRMC,000358,V,5907.1920,N,01222.9510,E,0.0,0.0,010200,1.1,E*63

$GPGGA,000358,5907.1920,N,01222.9510,E,0,0,99.00,82,M,,,,*05

$GPGSA,A,1,,,,,,,,,,,,,,99.00,99.00,0.00*2C

$GPGSV,1,1,2,28,,0,,123,22,194,*7D

$SDVLW,0.0,N,0.0,N*5A

$SDVHW,,T,,M,0.0,N,0.0,K*42

$SDMTW,,,C*36

$SDDPT,,*57

$SDDBT,,,,,,*45

$GPAPB,,,,,,,,,,,,,,*44

$GPGLL,5907.1920,N,01222.9510,E,000400,V*36

$GPRMB,,,,,,,,,,,,,*66

$GPRMC,000400,V,5907.1920,N,01222.9510,E,0.0,0.0,010200,1.1,E*69

$GPGGA,000400,5907.1920,N,01222.9510,E,0,0,99.00,82,M,,,,*0F

$GPGSA,A,1,,,,,,,,,,,,,,99.00,99.00,0.00*2C

$GPGSV,1,1,2,28,,0,,123,22,194,*7D

$SDVLW,0.0,N,0.0,N*5A

$SDVHW,,T,,M,0.0,N,0.0,K*42

$SDMTW,,,C*36

$SDDPT,,*57

$SDDBT,,,,,,*45

$GPAPB,,,,,,,,,,,,,,*44

$GPGLL,5907.1920,N,01222.9510,E,000402,V*34

$GPRMB,,,,,,,,,,,,,*66

$GPRMC,000402,V,5907.1920,N,01222.9510,E,0.0,0.0,010200,1.1,E*6B

$GPGGA,000402,5907.1920,N,01222.9510,E,0,0,99.00,82,M,,,,*0D

$GPGSA,A,1,,,,,,,,,,,,,,99.00,99.00,0.00*2C

$GPGSV,1,1,2,28,,0,,123,22,194,*7D

$SDVLW,0.0,N,0.0,N*5A

$SDVHW,,T,,M,0.0,N,0.0,K*42

$SDMTW,,,C*36

$SDDPT,,*57

$SDDBT,,,,,,*45

$GPAPB,,,,,,,,,,,,,,*44

$GPGLL,5907.1920,N,01222.9510,E,000404,V*32

$GPRMB,,,,,,,,,,,,,*66

$GPRMC,000404,V,5907.1920,N,01222.9510,E,0.0,0.0,010200,1.1,E*6D

$GPGGA,000404,5907.1920,N,01222.9510,E,0,0,99.00,82,M,,,,*0B

$GPGSA,A,1,,,,,,,,,,,,,,99.00,99.00,0.00*2C

$GPGSV,1,1,2,28,,0,,123,22,194,*7D

$SDVLW,0.0,N,0.0,N*5A

$SDVHW,,T,,M,0.0,N,0.0,K*42

$SDMTW,,,C*36

$SDDPT,,*57

$SDDBT,,,,,,*45

$GPAPB,,,,,,,,,,,,,,*44

$GPGLL,5907.1920,N,01222.9510,E,000406,V*30

$GPRMB,,,,,,,,,,,,,*66

$GPRMC,000406,V,5907.1920,N,01222.9510,E,0.0,0.0,010200,1.1,E*6F

$GPGGA,000406,5907.1920,N,01222.9510,E,0,0,99.00,82,M,,,,*09

$GPGSA,A,1,,,,,,,,,,,,,,99.00,99.00,0.00*2C

$GPGSV,1,1,2,28,,0,,123,22,194,*7D

$SDVLW,0.0,N,0.0,N*5A

$SDVHW,,T,,M,0.0,N,0.0,K*42

$SDMTW,,,C*36

$SDDPT,,*57

$SDDBT,,,,,,*45

$GPAPB,,,,,,,,,,,,,,*44

$GPGLL,5907.1920,N,01222.9510,E,000408,V*3E

$GPRMB,,,,,,,,,,,,,*66

$GPRMC,000408,V,5907.1920,N,01222.9510,E,0.0,0.0,010200,1.1,E*61

$GPGGA,000408,5907.1920,N,01222.9510,E,0,0,99.00,82,M,,,,*07

$GPGSA,A,1,,,,,,,,,,,,,,99.00,99.00,0.00*2C

$GPGSV,1,1,2,28,,0,,123,22,194,*7D

$SDVLW,0.0,N,0.0,N*5A

$SDVHW,,T,,M,0.0,N,0.0,K*42

$SDMTW,,,C*36

$SDDPT,,*57

$SDDBT,,,,,,*45

$GPAPB,,,,,,,,,,,,,,*44

$GPGLL,5907.1920,N,01222.9510,E,000410,V*37

$GPRMB,,,,,,,,,,,,,*66

$GPRMC,000410,V,5907.1920,N,01222.9510,E,0.0,0.0,010200,1.1,E*68

$GPGGA,000410,5907.1920,N,01222.9510,E,0,0,99.00,82,M,,,,*0E

$GPGSA,A,1,,,,,,,,,,,,,,99.00,99.00,0.00*2C

$GPGSV,1,1,2,28,,0,,123,22,194,*7D

$SDVLW,0.0,N,0.0,N*5A

$SDVHW,,T,,M,0.0,N,0.0,K*42

$SDMTW,,,C*36

$SDDPT,,*57

$SDDBT,,,,,,*45

$GPAPB,,,,,,,,,,,,,,*44

$GPGLL,5907.1920,N,01222.9510,E,000412,V*35

$GPRMB,,,,,,,,,,,,,*66

$GPRMC,000412,V,5907.1920,N,01222.9510,E,0.0,0.0,010200,1.1,E*6A

$GPGGA,000412,5907.1920,N,01222.9510,E,0,0,99.00,82,M,,,,*0C

$GPGSA,A,1,,,,,,,,,,,,,,99.00,99.00,0.00*2C

$GPGSV,1,1,2,28,,0,,123,22,194,*7D

$SDVLW,0.0,N,0.0,N*5A

$SDVHW,,T,,M,0.0,N,0.0,K*42

$SDMTW,,,C*36

$SDDPT,,*57

$SDDBT,,,,,,*45

$GPAPB,,,,,,,,,,,,,,*44

$GPGLL,5907.1920,N,01222.9510,E,000414,V*33

$GPRMB,,,,,,,,,,,,,*66

$GPRMC,000414,V,5907.1920,N,01222.9510,E,0.0,0.0,010200,1.1,E*6C

$GPGGA,000414,5907.1920,N,01222.9510,E,0,0,99.00,82,M,,,,*0A

$GPGSA,A,1,,,,,,,,,,,,,,99.00,99.00,0.00*2C

$GPGSV,1,1,2,28,,0,,123,22,194,*7D

$SDVLW,0.0,N,0.0,N*5A

$SDVHW,,T,,M,0.0,N,0.0,K*42

$SDMTW,,,C*36

$SDDPT,,*57

$SDDBT,,,,,,*45

$GPAPB,,,,,,,,,,,,,,*44

$GPGLL,5907.1920,N,01222.9510,E,000416,V*31

$GPRMB,,,,,,,,,,,,,*66

$GPRMC,000416,V,5907.1920,N,01222.9510,E,0.0,0.0,010200,1.1,E*6E

$GPGGA,000416,5907.1920,N,01222.9510,E,0,0,99.00,82,M,,,,*08

$GPGSA,A,1,,,,,,,,,,,,,,99.00,99.00,0.00*2C

$GPGSV,1,1,2,28,,0,,123,22,194,*7D

$SDVLW,0.0,N,0.0,N*5A

$SDVHW,,T,,M,0.0,N,0.0,K*42

$SDMTW,,,C*36

$SDDPT,,*57

$SDDBT,,,,,,*45

$GPAPB,,,,,,,,,,,,,,*44

$GPGLL,5907.1920,N,01222.9510,E,000418,V*3F

$GPRMB,,,,,,,,,,,,,*66

$GPRMC,000418,V,5907.1920,N,01222.9510,E,0.0,0.0,010200,1.1,E*60

$GPGGA,000418,5907.1920,N,01222.9510,E,0,0,99.00,82,M,,,,*06

$GPGSA,A,1,,,,,,,,,,,,,,99.00,99.00,0.00*2C

$GPGSV,1,1,2,28,,0,,123,22,194,*7D

$SDVLW,0.0,N,0.0,N*5A

$SDVHW,,T,,M,0.0,N,0.0,K*42

$SDMTW,,,C*36

$SDDPT,,*57

$SDDBT,,,,,,*45

$GPAPB,,,,,,,,,,,,,,*44

$GPGLL,5907.1920,N,01222.9510,E,000420,V*34

$GPRMB,,,,,,,,,,,,,*66

$GPRMC,000420,V,5907.1920,N,01222.9510,E,0.0,0.0,010200,1.1,E*6B

$GPGGA,000420,5907.1920,N,01222.9510,E,0,0,99.00,82,M,,,,*0D

$GPGSA,A,1,,,,,,,,,,,,,,99.00,99.00,0.00*2C

$GPGSV,1,1,2,28,,0,,123,22,194,*7D

$SDVLW,0.0,N,0.0,N*5A

$SDVHW,,T,,M,0.0,N,0.0,K*42

$SDMTW,,,C*36

$SDDPT,,*57

$SDDBT,,,,,,*45

$GPAPB,,,,,,,,,,,,,,*44

$GPGLL,5907.1920,N,01222.9510,E,000422,V*36

$GPRMB,,,,,,,,,,,,,*66

$GPRMC,000422,V,5907.1920,N,01222.9510,E,0.0,0.0,010200,1.1,E*69

$GPGGA,000422,5907.1920,N,01222.9510,E,0,0,99.00,82,M,,,,*0F

$GPGSA,A,1,,,,,,,,,,,,,,99.00,99.00,0.00*2C

$GPGSV,1,1,2,28,,0,,123,22,194,*7D

$SDVLW,0.0,N,0.0,N*5A

$SDVHW,,T,,M,0.0,N,0.0,K*42

$SDMTW,,,C*36

$SDDPT,,*57

$SDDBT,,,,,,*45

$GPAPB,,,,,,,,,,,,,,*44

$GPGLL,5907.1920,N,01222.9510,E,000424,V*30

$GPRMB,,,,,,,,,,,,,*66

$GPRMC,000424,V,5907.1920,N,01222.9510,E,0.0,0.0,010200,1.1,E*6F

$GPGGA,000424,5907.1920,N,01222.9510,E,0,0,99.00,82,M,,,,*09

$GPGSA,A,1,,,,,,,,,,,,,,99.00,99.00,0.00*2C

$GPGSV,1,1,2,28,,0,,123,22,194,*7D

$SDVLW,0.0,N,0.0,N*5A

$SDVHW,,T,,M,0.0,N,0.0,K*42

$SDMTW,,,C*36

$SDDPT,,*57

$SDDBT,,,,,,*45

$GPAPB,,,,,,,,,,,,,,*44

$GPGLL,5907.1920,N,01222.9510,E,000426,V*32

$GPRMB,,,,,,,,,,,,,*66

$GPRMC,000426,V,5907.1920,N,01222.9510,E,0.0,0.0,010200,1.1,E*6D

$GPGGA,000426,5907.1920,N,01222.9510,E,0,0,99.00,82,M,,,,*0B

$GPGSA,A,1,,,,,,,,,,,,,,99.00,99.00,0.00*2C

$GPGSV,1,1,2,28,,0,,123,22,194,*7D

$SDVLW,0.0,N,0.0,N*5A

$SDVHW,,T,,M,0.0,N,0.0,K*42

$SDMTW,,,C*36

$SDDPT,,*57

$SDDBT,,,,,,*45

$GPAPB,,,,,,,,,,,,,,*44

$GPGLL,5907.1920,N,01222.9510,E,000428,V*3C

$GPRMB,,,,,,,,,,,,,*66

$GPRMC,000428,V,5907.1920,N,01222.9510,E,0.0,0.0,010200,1.1,E*63

$GPGGA,000428,5907.1920,N,01222.9510,E,0,0,99.00,82,M,,,,*05

$GPGSA,A,1,,,,,,,,,,,,,,99.00,99.00,0.00*2C

$GPGSV,1,1,2,28,,0,,123,22,194,*7D

$SDVLW,0.0,N,0.0,N*5A

$SDVHW,,T,,M,0.0,N,0.0,K*42

$SDMTW,,,C*36

$SDDPT,,*57

$SDDBT,,,,,,*45

$GPAPB,,,,,,,,,,,,,,*44

$GPGLL,5907.1920,N,01222.9510,E,000430,V*35

$GPRMB,,,,,,,,,,,,,*66

$GPRMC,000430,V,5907.1920,N,01222.9510,E,0.0,0.0,010200,1.1,E*6A

$GPGGA,000430,5907.1920,N,01222.9510,E,0,0,99.00,82,M,,,,*0C

$GPGSA,A,1,,,,,,,,,,,,,,99.00,99.00,0.00*2C

$GPGSV,1,1,2,28,,0,,123,22,194,*7D

$SDVLW,0.0,N,0.0,N*5A

$SDVHW,,T,,M,0.0,N,0.0,K*42

$SDMTW,,,C*36

$SDDPT,,*57

$SDDBT,,,,,,*45

$GPAPB,,,,,,,,,,,,,,*44

$GPGLL,5907.1920,N,01222.9510,E,000432,V*37

$GPRMB,,,,,,,,,,,,,*66

$GPRMC,000432,V,5907.1920,N,01222.9510,E,0.0,0.0,010200,1.1,E*68

$GPGGA,000432,5907.1920,N,01222.9510,E,0,0,99.00,82,M,,,,*0E

$GPGSA,A,1,,,,,,,,,,,,,,99.00,99.00,0.00*2C

$GPGSV,1,1,2,28,,0,,123,22,194,*7D

$SDVLW,0.0,N,0.0,N*5A

$SDVHW,,T,,M,0.0,N,0.0,K*42

$SDMTW,,,C*36

$SDDPT,,*57

$SDDBT,,,,,,*45

$GPAPB,,,,,,,,,,,,,,*44

$GPGLL,5907.1920,N,01222.9510,E,000434,V*31

$GPRMB,,,,,,,,,,,,,*66

$GPRMC,000434,V,5907.1920,N,01222.9510,E,0.0,0.0,010200,1.1,E*6E

$GPGGA,000434,5907.1920,N,01222.9510,E,0,0,99.00,82,M,,,,*08

$GPGSA,A,1,,,,,,,,,,,,,,99.00,99.00,0.00*2C

$GPGSV,1,1,2,28,,0,,123,22,194,*7D

$SDVLW,0.0,N,0.0,N*5A

$SDVHW,,T,,M,0.0,N,0.0,K*42

$SDMTW,,,C*36

$SDDPT,,*57

$SDDBT,,,,,,*45

$GPAPB,,,,,,,,,,,,,,*44

$GPGGA,000436,5907.1920,N,01222.9510,E,0,0,99.00,82,M,,,,*0A

$GPGSA,A,1,,,,,,,,,,,,,,99.00,99.00,0.00*2C

$GPGSV,1,1,2,28,,0,,123,22,194,*7D

$SDVLW,0.0,N,0.0,N*5A

$SDVHW,,T,,M,0.0,N,0.0,K*42

$GPAPB,,,,,,,,,,,,,,*44

$GPGGA,000438,5907.1920,N,01222.9510,E,0,0,99.00,82,M,,,,*04

$GPGSA,A,1,,,,,,,,,,,,,,99.00,99.00,0.00*2C

$SDVHW,,T,,M,0.0,N,0.0,K*42

$SDMTW,,,C*36

$GPAPB,,,,,,,,,,,,,,*44

$GPGLL,5907.1920,N,01222.9510,E,000440,V*32

$GPRMB,,,,,,,,,,,,,*66

$GPRMC,000440,V,5907.1920,N,01222.9510,E,0.0,0.0,010200,1.1,E*6D

$GPGGA,000440,5907.1920,N,01222.9510,E,0,0,99.00,82,M,,,,*0B

$GPGSA,A,1,,,,,,,,,,,,,,99.00,99.00,0.00*2C

$GPGSV,1,1,2,28,,0,,123,22,194,*7D

$SDVLW,0.0,N,0.0,N*5A

$SDVHW,,T,,M,0.0,N,0.0,K*42

$SDMTW,,,C*36

$SDDPT,,*57

$SDDBT,,,,,,*45

$GPAPB,,,,,,,,,,,,,,*44

$GPGLL,5907.1920,N,01222.9510,E,000442,V*30

$GPRMB,,,,,,,,,,,,,*66

$GPRMC,000442,V,5907.1920,N,01222.9510,E,0.0,0.0,010200,1.1,E*6F

$GPGGA,000442,5907.1920,N,01222.9510,E,0,0,99.00,82,M,,,,*09

$GPGSA,A,1,,,,,,,,,,,,,,99.00,99.00,0.00*2C

$GPGSV,1,1,2,28,,0,,123,22,194,*7D

$SDVLW,0.0,N,0.0,N*5A

$SDVHW,,T,,M,0.0,N,0.0,K*42

$SDMTW,,,C*36

$SDDPT,,*57

$SDDBT,,,,,,*45

$GPAPB,,,,,,,,,,,,,,*44

$GPGLL,5907.1920,N,01222.9510,E,000444,V*36

$GPRMB,,,,,,,,,,,,,*66

$GPRMC,000444,V,5907.1920,N,01222.9510,E,0.0,0.0,010200,1.1,E*69

$GPGGA,000444,5907.1920,N,01222.9510,E,0,0,99.00,82,M,,,,*0F

$GPGSA,A,1,,,,,,,,,,,,,,99.00,99.00,0.00*2C

$GPGSV,1,1,2,28,,0,,123,22,194,*7D

$SDVLW,0.0,N,0.0,N*5A

$SDVHW,,T,,M,0.0,N,0.0,K*42

$SDMTW,,,C*36

$SDDPT,,*57

$SDDBT,,,,,,*45

$GPAPB,,,,,,,,,,,,,,*44

$GPGLL,5907.1920,N,01222.9510,E,000446,V*34

$GPRMB,,,,,,,,,,,,,*66

$GPRMC,000446,V,5907.1920,N,01222.9510,E,0.0,0.0,010200,1.1,E*6B

$GPGGA,000446,5907.1920,N,01222.9510,E,0,0,99.00,82,M,,,,*0D

$GPGSA,A,1,,,,,,,,,,,,,,99.00,99.00,0.00*2C

$GPGSV,1,1,2,28,,0,,123,22,194,*7D

$SDVLW,0.0,N,0.0,N*5A

$SDVHW,,T,,M,0.0,N,0.0,K*42

$SDMTW,,,C*36

$SDDPT,,*57

$SDDBT,,,,,,*45

$GPAPB,,,,,,,,,,,,,,*44

$GPGLL,5907.1920,N,01222.9510,E,000448,V*3A

$GPRMB,,,,,,,,,,,,,*66

$GPRMC,000448,V,5907.1920,N,01222.9510,E,0.0,0.0,010200,1.1,E*65

$GPGGA,000448,5907.1920,N,01222.9510,E,0,0,99.00,82,M,,,,*03

$GPGSA,A,1,,,,,,,,,,,,,,99.00,99.00,0.00*2C

$GPGSV,1,1,2,28,,0,,123,22,194,*7D

$SDVLW,0.0,N,0.0,N*5A

$SDVHW,,T,,M,0.0,N,0.0,K*42

$SDMTW,,,C*36

$SDDPT,,*57

$SDDBT,,,,,,*45

$GPAPB,,,,,,,,,,,,,,*44

$GPGLL,5907.1920,N,01222.9510,E,000450,V*33

$GPRMB,,,,,,,,,,,,,*66

$GPRMC,000450,V,5907.1920,N,01222.9510,E,0.0,0.0,010200,1.1,E*6C

$GPGGA,000450,5907.1920,N,01222.9510,E,0,0,99.00,82,M,,,,*0A

$GPGSA,A,1,,,,,,,,,,,,,,99.00,99.00,0.00*2C

$GPGSV,1,1,2,28,,0,,123,22,194,*7D

$SDVLW,0.0,N,0.0,N*5A

$SDVHW,,T,,M,0.0,N,0.0,K*42

$SDMTW,,,C*36

$SDDPT,,*57

$SDDBT,,,,,,*45

$GPAPB,,,,,,,,,,,,,,*44

$GPGLL,5907.1920,N,01222.9510,E,000452,V*31

$GPRMB,,,,,,,,,,,,,*66

$GPRMC,000452,V,5907.1920,N,01222.9510,E,0.0,0.0,010200,1.1,E*6E

$GPGGA,000452,5907.1920,N,01222.9510,E,0,0,99.00,82,M,,,,*08

$GPGSA,A,1,,,,,,,,,,,,,,99.00,99.00,0.00*2C

$GPGSV,1,1,2,28,,0,,123,22,194,*7D

$SDVLW,0.0,N,0.0,N*5A

$SDVHW,,T,,M,0.0,N,0.0,K*42

$SDMTW,,,C*36

$SDDPT,,*57

$SDDBT,,,,,,*45

$GPAPB,,,,,,,,,,,,,,*44

$GPGLL,5907.1920,N,01222.9510,E,000454,V*37

$GPRMB,,,,,,,,,,,,,*66

$GPRMC,000454,V,5907.1920,N,01222.9510,E,0.0,0.0,010200,1.1,E*68

$GPGGA,000454,5907.1920,N,01222.9510,E,0,0,99.00,82,M,,,,*0E

$GPGSA,A,1,,,,,,,,,,,,,,99.00,99.00,0.00*2C

$GPGSV,1,1,2,28,,0,,123,22,194,*7D

$SDVLW,0.0,N,0.0,N*5A

$SDVHW,,T,,M,0.0,N,0.0,K*42

$SDMTW,,,C*36

$SDDPT,,*57

$SDDBT,,,,,,*45

$GPAPB,,,,,,,,,,,,,,*44

$GPGLL,5907.1920,N,01222.9510,E,000456,V*35

$GPRMB,,,,,,,,,,,,,*66

$GPRMC,000456,V,5907.1920,N,01222.9510,E,0.0,0.0,010200,1.1,E*6A

$GPGGA,000456,5907.1920,N,01222.9510,E,0,0,99.00,82,M,,,,*0C

$GPGSA,A,1,,,,,,,,,,,,,,99.00,99.00,0.00*2C

$GPGSV,1,1,2,28,,0,,123,22,194,*7D

$SDVLW,0.0,N,0.0,N*5A

$SDVHW,,T,,M,0.0,N,0.0,K*42

$SDMTW,,,C*36

$SDDPT,,*57

$SDDBT,,,,,,*45

$GPAPB,,,,,,,,,,,,,,*44

$GPGLL,5907.1920,N,01222.9510,E,000458,V*3B

$GPRMB,,,,,,,,,,,,,*66

$GPRMC,000458,V,5907.1920,N,01222.9510,E,0.0,0.0,010200,1.1,E*64

$GPGGA,000458,5907.1920,N,01222.9510,E,0,0,99.00,82,M,,,,*02

$GPGSA,A,1,,,,,,,,,,,,,,99.00,99.00,0.00*2C

$GPGSV,1,1,2,28,,0,,123,22,194,*7D

$SDVLW,0.0,N,0.0,N*5A

$SDVHW,,T,,M,0.0,N,0.0,K*42

$SDMTW,,,C*36

$SDDPT,,*57

$SDDBT,,,,,,*45

$GPAPB,,,,,,,,,,,,,,*44

$GPGLL,5907.1920,N,01222.9510,E,000500,V*37

$GPRMB,,,,,,,,,,,,,*66

$GPRMC,000500,V,5907.1920,N,01222.9510,E,0.0,0.0,010200,1.1,E*68

$GPGGA,000500,5907.1920,N,01222.9510,E,0,0,99.00,82,M,,,,*0E

$GPGSA,A,1,,,,,,,,,,,,,,99.00,99.00,0.00*2C

$GPGSV,1,1,2,28,,0,,123,22,194,*7D

$SDVLW,0.0,N,0.0,N*5A

$SDVHW,,T,,M,0.0,N,0.0,K*42

$SDMTW,,,C*36

$SDDPT,,*57

$SDDBT,,,,,,*45

$GPAPB,,,,,,,,,,,,,,*44

$GPGLL,5907.1920,N,01222.9510,E,000502,V*35

$GPRMB,,,,,,,,,,,,,*66

$GPRMC,000502,V,5907.1920,N,01222.9510,E,0.0,0.0,010200,1.1,E*6A

$GPGGA,000502,5907.1920,N,01222.9510,E,0,0,99.00,82,M,,,,*0C

$GPGSA,A,1,,,,,,,,,,,,,,99.00,99.00,0.00*2C

$GPGSV,1,1,2,28,,0,,123,22,194,*7D

$SDVLW,0.0,N,0.0,N*5A

$SDVHW,,T,,M,0.0,N,0.0,K*42

$SDMTW,,,C*36

$SDDPT,,*57

$SDDBT,,,,,,*45

$GPAPB,,,,,,,,,,,,,,*44

$GPGLL,5907.1920,N,01222.9510,E,000504,V*33

$GPRMB,,,,,,,,,,,,,*66

$GPRMC,000504,V,5907.1920,N,01222.9510,E,0.0,0.0,010200,1.1,E*6C

$GPGGA,000504,5907.1920,N,01222.9510,E,0,0,99.00,82,M,,,,*0A

$GPGSA,A,1,,,,,,,,,,,,,,99.00,99.00,0.00*2C

$GPGSV,1,1,2,28,,0,,123,22,194,*7D

$SDVLW,0.0,N,0.0,N*5A

$SDVHW,,T,,M,0.0,N,0.0,K*42

$SDMTW,,,C*36

$SDDPT,,*57

$SDDBT,,,,,,*45

$GPAPB,,,,,,,,,,,,,,*44

$GPGLL,5907.1920,N,01222.9510,E,000506,V*31

$GPRMB,,,,,,,,,,,,,*66

$GPRMC,000506,V,5907.1920,N,01222.9510,E,0.0,0.0,010200,1.1,E*6E

$GPGGA,000506,5907.1920,N,01222.9510,E,0,0,99.00,82,M,,,,*08

$GPGSA,A,1,,,,,,,,,,,,,,99.00,99.00,0.00*2C

$GPGSV,1,1,2,28,,0,,123,22,194,*7D

$SDVLW,0.0,N,0.0,N*5A

$SDVHW,,T,,M,0.0,N,0.0,K*42

$SDMTW,,,C*36

$SDDPT,,*57

$SDDBT,,,,,,*45

$GPAPB,,,,,,,,,,,,,,*44

$GPGLL,5907.1920,N,01222.9510,E,000508,V*3F

$GPRMB,,,,,,,,,,,,,*66

$GPRMC,000508,V,5907.1920,N,01222.9510,E,0.0,0.0,010200,1.1,E*60

$GPGGA,000508,5907.1920,N,01222.9510,E,0,0,99.00,82,M,,,,*06

$GPGSA,A,1,,,,,,,,,,,,,,99.00,99.00,0.00*2C

$GPGSV,1,1,2,28,,0,,123,22,194,*7D

$SDVLW,0.0,N,0.0,N*5A

$SDVHW,,T,,M,0.0,N,0.0,K*42

$SDMTW,,,C*36

$SDDPT,,*57

$SDDBT,,,,,,*45

$GPAPB,,,,,,,,,,,,,,*44

$GPGLL,5907.1920,N,01222.9510,E,000510,V*36

$GPRMB,,,,,,,,,,,,,*66

$GPRMC,000510,V,5907.1920,N,01222.9510,E,0.0,0.0,010200,1.1,E*69

$GPGGA,000510,5907.1920,N,01222.9510,E,0,0,99.00,82,M,,,,*0F

